stop_id,stop_code,stop_name,stop_lat,stop_lon,zone_id
0,DC4539,Narela Terminal,28.852003999999997,77.088059,0
1,DC4540,Police Station Narela,28.853365999999998,77.088535,1
2,DC4541,Safiyabad Crossing,28.855265999999997,77.08973,2
3,DC4542,Ramdev Chowk Pithori Jhori,28.857752,77.09285600000003,3
4,DC4543,Narela A-6 / CPJ College,28.857652,77.09574599999998,4
5,DC4544,State Bank Of Allahbad,28.857128000000003,77.097951,5
6,DC4545,Sec A-9 Narela,28.85454600000001,77.09790699999998,6
7,DC4546,Sec A-9 and A-6 Narela,28.85177100000001,77.097849,7
8,DC4547,A-7 Narela Sec- 10A Pocket- 66,28.849048,77.098446,8
9,DC4548,Harish Chandra Hospital,28.840806,77.10202199999998,9
10,DC4549,Kasturi Ram School,28.837182000000002,77.098223,10
11,DC4550,Munim Ji Ka Bagh,28.836163,77.092108,11
12,DC4551,New Anaj Mandi,28.838334999999997,77.091413,12
13,DC4552,Kurani More,28.840835,77.09052700000002,13
14,DC4893,Prem Nagar Narela,28.837754999999998,77.081097,14
15,DC4554,Maharaja Agrassen School,28.835906,77.07933299999998,15
16,DC4555,Bharat Mata School,28.833074,77.076871,16
17,DC4556,Kaushal Devi Netraheen Ashram,28.825201,77.070198,17
18,DC5264,Sannoth Crossing / Ghoga Crossing,28.819549,77.06355,18
19,DC4558,Delhi Jal Board Bawana,28.815305,77.057968,19
20,DC4559,Jain Bekhunth Mandir,28.81187700000001,77.05411099999998,20
21,DC4560,JJ Colony Bawana Crpf Camp,28.806835999999997,77.04800999999998,21
22,DC5263,Bawana Sec 1 Cluster Depot,28.79472100000001,77.041829,22
23,DC3605,Swaroop Nagar GT Road,28.758318,77.14830500000002,23
24,DC3606,Libas Pur GT Road,28.750111999999998,77.150774,24
25,U01532,Sanjay Gandhi Transport Nagar,28.7402,77.154,25
26,DC3607,Mukarba Chowk,28.735084000000004,77.155874,26
27,U01588,GTK Depot,28.731116999999998,77.158967,27
28,U99882A,Jahangirpuri GT Road (Metro Station),28.7257,77.163,28
29,DC3655,Mahindra Park,28.721715000000003,77.166162,29
30,U01698,Sarai Pipal Thala,28.7206,77.1671,30
31,U01747,Adarsh Nagar Metro Station,28.717467,77.169917,31
32,U01781,New Sabzi Mandi,28.714415000000002,77.172422,32
33,U01867,Azadpur,28.7063,77.1795,33
34,U01929,Bara Bagh,28.7017,77.1831,34
35,U01969,Gujranwala Town,28.6995,77.1849,35
36,U02004,Telephone Exchange,28.6971,77.1869,36
37,U02033,State Bank Colony,28.6954,77.1883,37
38,U02088,Gurudwara Nanak Pyau,28.691,77.192,38
39,U02112,Rana Pratap Bagh,28.6882666666667,77.1937,39
40,U02138,Gur Mandi,28.6848,77.1963,40
41,U02180,Roop Nagar / Shakti Nagar (GT Road),28.682832,77.197614,41
42,DC0027,Clock Tower,28.677616999999998,77.201567,42
43,U02242,Roshnara Bagh,28.6733,77.2018,43
44,U02274,Roshnara Road,28.669249,77.20455,44
45,U02387,Ice Factory (Roshanara Road),28.66745,77.20765,45
46,DC0028,St Stephen Hospital,28.6674,77.2143,46
47,U02512,Tees Hazari Court,28.6668,77.2188,47
48,U02690,ISBT Nityanand Marg,28.668342,77.225091,48
49,DC3575,ISBT Bridge,28.6692730781321,77.22821832178809,49
50,U02946,Metro Train Depot,28.673866999999998,77.241633,50
51,DC3576,Metro Train Depot,28.674383000000002,77.243117,51
52,U03019,Shyam Giri Mandir,28.6741,77.24775,52
53,DC3577,Shastri Park,28.673083000000002,77.25405,53
54,U03126,Shastri Park,28.6726,77.2571,54
55,U03184,Dharampura,28.67085,77.262183,55
56,U03193,Seelampur Metro Station,28.670783,77.265423,56
57,U03268,Seelam Pur Petrol Pump,28.672117,77.27346700000002,57
58,U03300,Welcome Metro Station,28.67278300000001,77.27715,58
59,U03350,Shahdara (Shyam Lal College),28.6736,77.28353299999998,59
60,U03509,Mansarovar Park Metro Station,28.6759,77.2999,60
61,U03614,Telephone Exchange,28.676067,77.30925,61
62,U03636,Jhilmil Crossing / Dilshad Garden GT Road,28.67615,77.311883,62
63,U03746,Shahdra Border,28.6758,77.3231,63
64,U99883A,Surya Nagar,28.6668,77.3217,64
65,U03715,Ram Prastha Temple,28.6631,77.3205,65
66,U03712,Ram Prastha Crossing,28.6608,77.3202,66
67,DC3612,Anand Vihar ISBT Main Road,28.646959999999996,77.317879,67
68,U03679,Anand Vihar ISBT Terminal,28.64671,77.31461800000002,68
69,DC3531,Kair Depot,28.618288,76.930672,69
70,DC4030,Mitraon Village (Dhansa Road),28.608268579943104,76.94478225753659,70
71,U00079,Mitraon School,28.6069,76.9394,71
72,U00067,Surehra Crossing,28.60418,76.93233199999997,72
73,U00051,Rawta Crossing,28.600134000000004,76.915856,73
74,DC4018,Jaffarpur RTRM Hospital,28.595235,76.915487,74
75,DC4008,Samaspur Khalsa,28.578317,76.909933,75
76,U00143,Tikri Border Metro Station,28.688171999999998,76.96445899999998,76
77,U00165,Tikari Village,28.6875,76.9708,77
78,U00194,Tikri Hospital,28.6869,76.9783,78
79,U00211,Tikri Piyau / Azad Hind Gram,28.686816999999998,76.979933,79
80,DC3758,Indian Oil Corporation,28.686266999999997,76.986533,80
81,U00282,Ghevra Crossing (Kanjhawala Road),28.685717,76.99453299999998,81
82,U00271,FCI Ghevra,28.6927,76.9938,82
83,U00290,Ghevra Village,28.696285999999997,76.997661,83
84,U00302,Sir Chhotu Ram Polytechnic,28.707177,77.00108399999998,84
85,U00317,Kanjhawala Haryana Shakti C-School,28.713983000000002,77.00326700000002,85
86,U00322,Desu Sub Station,28.723216666666694,77.0044833333333,86
87,U00312,Kanjhawala Depot (Narela Road),28.727519,77.00254100000002,87
88,U00327,Kanjhawala Village,28.734184999999997,77.0049,88
89,DC5154,Kanjhawla Chowk,28.738004999999998,77.007551,89
90,DC4516,SDM Court Kanjhawala,28.74049,77.00948100000002,90
91,DC4517,Chandpur Crossing,28.751281,77.01430500000002,91
92,DC5155,Chand Pur Village,28.75137,77.00975,92
93,DC5158,Chand Pur Village,28.753290000000003,77.00775,93
94,DC5159,Chand Pur Majra School,28.75895,76.99894,94
95,DC5161,Majra Dabas Village,28.768990000000002,76.99852,95
96,DC4519,Prem Piyau,28.76663,77.01638,96
97,DC4520,Shri Krishna Gaushala,28.77931400000001,77.021694,97
98,DC4521,Bajit Pur Xing,28.784999,77.023967,98
99,DC4522,Krishna Vihar,28.789732,77.027956,99
100,DC4523,Ishwar Colony,28.794758,77.029958,100
101,DC4524,Panchayat Ghar,28.797927,77.031801,101
102,DC4525,Primary School,28.797763,77.034409,102
103,DC4526,Bawana Village,28.799965999999998,77.035368,103
104,U01343,Badli Railway Staion,28.7453,77.137333,104
105,U01390,Samaypur School,28.744211,77.14307600000002,105
106,DC3772,Prem Nagar,28.74288300000001,77.146467,106
107,U02440,Ice Factory,28.6678,77.2101,107
108,U02716,ISBT Kashmere Gate (Lothian Road),28.66685,77.229517,108
109,U02791,Guru Govind Singh University (Kashmere Gate),28.6657,77.23,109
110,U02842,GPO,28.6617166666667,77.2354,110
111,U02739,Old Delhi Railway Station,28.660087,77.227876,111
112,U03402,Shahdara Terminal,28.674219,77.28718,112
113,U03349,Shahdara (Shyam Lal College),28.67336400000001,77.283725,113
114,U03340,Kanti Nagar Extension,28.6704,77.2809,114
115,U03346,Jharkhandi,28.66785,77.28225,115
116,U03384,East Azad Nagar,28.666166999999998,77.283917,116
117,U03394,Swaran Cinema,28.6636,77.285933,117
118,U03404,Krishna Nagar A Block,28.660999999999998,77.2878,118
119,U03430,Hans Apartment,28.6582,77.29,119
120,U03444,Arjun Nagar,28.6564,77.2915,120
121,U03457,Radheypuri,28.654,77.2925,121
122,U03461,JagatpuriA Block,28.651833,77.293083,122
123,U03476,Jagatpuri F-Block,28.648035999999998,77.295529,123
124,U99881,Gagan Vihar,28.6455,77.2979,124
125,U03500,Karkardooma Xing,28.642867,77.29725,125
126,U03485,New Rajdhani Enclave,28.64215,77.29625,126
127,DC0109,Preet Vihar,28.639333,77.292417,127
128,U03416,Nirman Vihar,28.636783,77.287683,128
129,U03380,Shakarpur Crossing,28.635367,77.28495,129
130,U03345,Shakarpur,28.633516999999998,77.282067,130
131,U03307,Laxmi Nagar,28.6313,77.2789,131
132,U03160,Rainy Well,28.628017,77.26095,132
133,U03055,Delhi Secretariat,28.62795,77.25235,133
134,U02961,ITO,28.627883,77.24335,134
135,U02887,Tilak Bridge,28.6253,77.2387,135
136,U02831,Mandi House,28.625566999999997,77.233933,136
137,U02790,Mandi House,28.625034999999997,77.230571,137
138,DC4132,Kasturba Gandhi Road Crossing,28.623228000000005,77.226725,138
139,U02621,Firoz Shah Road,28.621,77.2215,139
140,DC4133,Le Meridian Hotel / Rajendra Prasad Road,28.619225,77.21752099999998,140
141,U02495SB,Krishi Bhawan,28.6169,77.213617,141
142,U02444,Red Cross Road,28.618035,77.210453,142
143,U02437,Aakashwani Bhawan (Imtiyaz Ali Road),28.62065,77.2098,143
144,U02375,Gurudwara Rakab Ganj Road,28.6209,77.2073,144
145,U02293Z,Kendriya Terminal (Church Road),28.617308,77.203983,145
146,U00191,Najafgarh Terminal,28.614614000000003,76.978024,146
147,U00201,Jharoda Crossing/Nazafgarh Terminal,28.613616999999998,76.97971700000002,147
148,DC3555,Jharoda Crossing,28.614082,76.980687,148
149,DC3556,Health Centre,28.61415,76.985217,149
150,U00259,NajafGarh Delhi Gate,28.612627000000003,76.986253,150
151,U00260,Tuda Mandi,28.612622,76.99150999999998,151
152,U00279,Power House NajafGarh,28.61325,76.996217,152
153,U00291,Sai Baba Mandir (Nazafgarh),28.61375,76.99985,153
154,U00314,Nangli Sakrawati,28.614666999999997,77.0034,154
155,U00331,Nangli Sakrawati Crossing,28.616417,77.007333,155
156,U00355,Arjun Park,28.618,77.012067,156
157,DC4882,Chhathh Ghat Park,28.619104999999998,77.015167,157
158,U00368,Nangli Dairy,28.62013300000001,77.01795,158
159,U00378,Kakrola Bridge,28.6201,77.024509,159
160,U00387,Kakrola More,28.619346999999998,77.028577,160
161,U00395,Kakrola Crossing / Dwarka More,28.6190046863409,77.03117079452271,161
162,DC3568,Dwarka More Metro Station (Sewak Park),28.619332,77.03250799999998,162
163,U00425,Rama Park,28.619965000000004,77.03671899999998,163
164,U00453,Mohan Garden,28.620385,77.04079499999997,164
165,U00464,Nawada Gaon,28.620349,77.044853,165
166,U00491,Kiran Garden,28.62081,77.048338,166
167,U00503,Om Vihar,28.621124,77.05154300000002,167
168,U00538,Prem Nagar,28.62211,77.056846,168
169,U00561,Uttam Nagar,28.623016999999997,77.06031,169
170,U00601,Uttam Nagar / A1 Janak Puri,28.624767,77.06775,170
171,U00623,Tilak Pul,28.6215,77.07,171
172,U00651,Jivan park,28.62,77.0733,172
173,U00680,C-1 Janak Puri,28.6182,77.077017,173
174,U00698,C-1 Janak Puri,28.6174,77.0785,174
175,U00741,C-2 Janak Puri,28.616099,77.081447,175
176,DC4710,C2D Janak Puri,28.614296000000003,77.085552,176
177,U00813,Dabri Crossing (Pankha Road),28.613374,77.087756,177
178,U00876,Janak Cinema,28.610936,77.093097,178
179,U00907,Desu Colony Janak Puri,28.610011,77.095348,179
180,U00974,SagarPur Vashisht Park,28.60921500000001,77.101033,180
181,U01004,D Block Janak Puri,28.61096,77.103583,181
182,U01019,Lajwanti Garden,28.614,77.1062,182
183,U01044,Lajwanti Garden (Carriappa Marg),28.613129999999998,77.109679,183
184,U01079,Janak Setu,28.6107,77.1139,184
185,U01164,Supply Depot,28.606783,77.123367,185
186,U04005A,Kirbi Place,28.60483300000001,77.128283,186
187,NS0256,Thimiyan Park,28.602816999999998,77.133517,187
188,U01356CV,S O Flats Carriappa Marg,28.600316999999997,77.13973299999998,188
189,U01481,R R Line,28.596166999999998,77.1504,189
190,U01594,Golf Club,28.592966999999998,77.15848299999998,190
191,U01636,Dhaula Kuan,28.592987,77.162867,191
192,U02453,BBM Cluster Depot,28.703583000000002,77.21068299999997,192
193,U02420,Sewa Kutir,28.702162,77.209581,193
194,DC3717,GTB Nagar / Haqiqat Nagar,28.69815800000001,77.207636,194
195,U02467,INS Hostel,28.6961333333333,77.2122666666667,195
196,U02515,Vishwa Vidyalaya Metro Station,28.695039,77.215261,196
197,U02572,Mall Road,28.693783000000003,77.21866700000002,197
198,U02594,Banarsi Daas Estate Timarpur,28.69714,77.220359,198
199,U02599,Timarpur,28.701233333333306,77.2212666666667,199
200,DC3745,Balak Ram Hospital,28.7054,77.22316667,200
201,U02656,Police Station Timarpur,28.707016999999997,77.223917,201
202,U02705,Nehru Vihar Crossing,28.709066999999997,77.226233,202
203,U02737,Wazirabad Crossing,28.711467,77.228167,203
204,DC3724,Gurudwara Nanak Sar,28.710233000000002,77.24136700000003,204
205,DC3725,Pusta No 1 Sonia Vihar,28.7189,77.24325,205
206,DC3727,Pusta No 2 Sonia Vihar,28.721517,77.24386700000002,206
207,DC3729,Pusta No 3 Sonia Vihar,28.725583,77.2448,207
208,DC3731,Gatta Factory Sonia Vihar,28.730183,77.24575,208
209,DC3732,Sonia Vihar,28.7324,77.24623299999998,209
210,DC3734,Pusta No 5 Sonia Vihar,28.734583,77.246633,210
211,DC3737,Check Post,28.739366999999998,77.24745,211
212,DC3738,Annpurna Mandir,28.74245,77.246567,212
213,DC3740,Sabhapur More,28.750166999999998,77.24385,213
214,DC3742,Chauhan Patti (Terminal),28.754766999999998,77.24325,214
215,DC4197,NHAI Building/ Dwarka Sec-10 Metro Station,28.578409000000004,77.058932,215
216,DC4346,Dwarka Sec-19 Modern School,28.578590999999996,77.054908,216
217,DC4344,Amrohi More,28.574383,77.05115,217
218,DC4342,St Marry School,28.573412,77.048418,218
219,DC4340,Police Post,28.577292,77.035195,219
220,DC4338,Qutub Vihar Phase-I Kikar Stand,28.578246999999998,77.02915,220
221,DC4336,Jhankar Crossing,28.57905,77.024348,221
222,DC4334,Goyla Dairy,28.579765999999996,77.021478,222
223,DC4332,Nehru Bus Stand Goyla Dairy,28.580346000000002,77.019327,223
224,DC4330,St Thomas School Goyla Vihar,28.581815999999996,77.015072,224
225,DC4328,Taj Pur More,28.583270000000002,77.011534,225
226,DC4326,Goyla Village,28.587476000000002,77.008636,226
227,DC4324,Shyam Vihar,28.591403000000003,77.000404,227
228,U00266,Goela Dairy Crossing,28.591084000000002,76.9931,228
229,U00262,Deenpur Village,28.5933,76.9918,229
230,U00254,Durga Vihar,28.5965,76.9902,230
231,U00249,BDO Office Roshan Pura,28.600503000000003,76.988603,231
232,U00229,Chhawla Stand Najafgarh,28.6084,76.9853,232
233,U00226,Police Station Najafgarh,28.6096,76.9827,233
234,U00190,Nazafgarh Dhansa More,28.612021000000002,76.978565,234
235,U00217,Dichau Chowk,28.6173,76.983867,235
236,U00234,Udaseen Ashram,28.621783,76.988067,236
237,U00252,Nirmal Vihar,28.62545,76.99243299999998,237
238,U00288,Dichau Kalan Depot,28.629315000000002,76.997763,238
239,DC0018,Azad Pur Terminal,28.707534999999996,77.17819200000002,239
240,U01780,New Sabzi Mandi,28.7139,77.1725,240
241,U01761,Adarsh Nagar / Bharola Village,28.715916999999997,77.170867,241
242,U01699,Sarai Peepal Thala,28.720416999999998,77.166983,242
243,DC3598,Mahindra Park,28.7215333333333,77.166,243
244,DC3599,Jahangir Puri GT Road,28.7251,77.163217,244
245,DC3600,Jahangir Puri Metro Station,28.7273,77.161583,245
246,U01582,GTK Depot,28.731183,77.158617,246
247,DC3601,Mukarba Chowk,28.73465,77.15576899999998,247
248,DC3602,Sanjay Gandhi Transport Nagar,28.738331,77.154234,248
249,U01479,Libas Pur GT Road,28.752467,77.149383,249
250,U01464,Swaroop Nagar GT Road,28.75805,77.14765,250
251,DC4802,Gurudwara Siraspur GT Road,28.76486,77.145315,251
252,DC5178,Nangli Poona More,28.771708,77.142899,252
253,DC5180,Khera Garhi,28.771944,77.121967,253
254,DC5182,Khera Kalan School,28.771903000000002,77.117675,254
255,DC5184,Khera Kalan Gaon,28.772345,77.115104,255
256,DC5186,Rishi Dharmarth Chikitsalaya,28.773931,77.104022,256
257,DC5188,Khera Khurd Village,28.773946999999996,77.100381,257
258,DC5191,Khera Khurd Nahar Crossing,28.773761,77.09241,258
259,DC5192,Naya Bans,28.783337,77.096637,259
260,DC5194,Mann School,28.793446999999997,77.095545,260
261,DC5096,Holambi Khurd DRID College,28.795391,77.09778399999998,261
262,DC5098,Holambi Khurd,28.799721,77.096011,262
263,DC5100,Holambi Kalan Terminal,28.801883,77.096003,263
264,DC4996,Holambi Kalan Crossing,28.809564,77.107095,264
265,DC4998,Shahpur Garhi,28.817688,77.102397,265
266,DC5000,Narela ITI / Narela Depot,28.820295,77.101135,266
267,DC5002,DSIDC Narela,28.821203999999998,77.100678,267
268,DC5004,Bhor Garh,28.829162,77.094509,268
269,DC5006,Babu Jag Jeevan Ram Colony,28.833012,77.093266,269
270,DC4537,Old Anaj Mandi,28.845685999999997,77.08874399999998,270
271,DC4538,Narela Primary School,28.846916999999998,77.088291,271
272,DC4364,Keshav Nagar Mukti Ashram,28.779253000000004,77.179936,272
273,DC4362,Ibrahim Pur More,28.775793,77.17966899999998,273
274,DC3796,Natthupura Crossing Terminal,28.768883000000002,77.18078299999998,274
275,U01942,Amrit Vihar Colony,28.7645,77.1838,275
276,U02050,Koushik Enclave,28.761166999999997,77.18871700000003,276
277,U02086,Laxmi Vihar,28.76015,77.1910833333333,277
278,DC0054,Ekta Garden- Harijan Basti,28.7555,77.1983,278
279,U02216,Burari Village,28.7541,77.199,279
280,U02214,Sarvodhya Vidhyalay Burari,28.7492333333333,77.1985666666667,280
281,U02200,Balti Factory,28.7467,77.1983,281
282,U02182,Sant Nagar Main Market,28.7418,77.19800000000002,282
283,U02160,Sant Nagar A-1,28.7377,77.1973,283
284,U02169,Jharoda Dairy Crossing,28.734483,77.197717,284
285,U02199,Burari Transport Authority,28.730566999999997,77.19846700000002,285
286,U02185,Nirankari Sarover- Burari Xing,28.727729999999998,77.19806700000002,286
287,DC0055,CV Raman ITI,28.72095,77.20015,287
288,U02301,Nirankari Colony,28.714883,77.2041,288
289,U02327,Radio Colony,28.7112333333333,77.2045,289
290,U09586,Dhaka Village,28.706789,77.20473299999998,290
291,U02325,Balmiki Gandhi Ashram,28.70458,77.205033,291
292,U02318,TB Hospital,28.700567,77.205017,292
293,U02350,GTB Nagar,28.698266999999998,77.206457,293
294,U02613,Khyber Pass,28.6902,77.2214,294
295,U02620,Vidhan Sabha Metro Station,28.68775,77.22165,295
296,U02628A,Old Secretariat (Postal Account Office),28.683883333333306,77.22228333333331,296
297,U99851,IP College,28.680515000000003,77.223439,297
298,DC3689,Exchange Store / Civil Lines Metro Station,28.676717,77.225033,298
299,U02700,Ludlow Castle,28.6724,77.226,299
300,DC3596,ISBT Nityanand Marg,28.668217,77.2253,300
301,U01890,Natthupura Terminal,28.768915000000003,77.18095,301
302,U02125,Burari Garhi,28.7578,77.1952,302
303,U02176,Sant Nagar A-1,28.7387,77.1975,303
304,U02395,GTB Nagar / Haqiqat Nagar,28.698283,77.2076,304
305,U02421,Sewa Kutir,28.70265,77.2098166666667,305
306,U02458,BBM Cluster Depot,28.704317,77.21118299999998,306
307,DC4855,Madanpur Khadar JJ Colony,28.532504,77.314937,307
308,DC4856,Madanpur Khadar Crossing,28.531925,77.304505,308
309,DC4857,Kalindi Kunj Metro Station,28.543017,77.309483,309
310,DC4858,Kalindi Kunj,28.545083,77.306217,310
311,DC4859,Shaheen Bagh,28.542817,77.30305,311
312,DC4860,Jasola Vihar,28.5404,77.2968,312
313,DC4861,Sarita Vihar K Block,28.538333,77.29186700000002,313
314,U03351,Apollo Hospital,28.5396,77.2825,314
315,U03323,Harkesh Nagar,28.543767,77.2793,315
316,U03292,Okhla Tank,28.548016999999998,77.276567,316
317,U03273,CRRI,28.551067,77.27395,317
318,U03249,Sukhdev Vihar Depot,28.554866999999998,77.27125,318
319,U03225,Kalkaji Xing,28.55795,77.26895,319
320,U03204,Ishwar Nagar,28.5616,77.266217,320
321,U03171,New Friends Colony,28.5667,77.2624,321
322,U03148S,Ashram Chowk,28.57123300000001,77.259017,322
323,U03121,Ashram (Hari Nagar),28.574146000000002,77.25683599999998,323
324,U03049,Bhogal,28.5828,77.2511,324
325,U03037,Bhogal (Jungpura),28.58465,77.249617,325
326,U03000,Nizamuddin Extension,28.589233,77.2463,326
327,U02974,Police Station Nizamuddin (Dargah),28.591666999999998,77.244633,327
328,U02860,Ishpat Bhawan,28.5924,77.23675,328
329,DC0094,JLN Stadium (Sunehripulla Depot),28.591833,77.232383,329
330,U02661,Lodhi Colony 18-Block,28.586733000000002,77.22425,330
331,U99988,Lodhi Colony,28.584817,77.224533,331
332,DC0098,Kushak Nallah Depot,28.580036,77.22513199999999,332
333,DC3821,Madanpur Khadar Village,28.532280600000004,77.296803,333
334,U03421,Madanpur Khadar Crossing,28.52965,77.287933,334
335,U03398,Sarita Vihar,28.53205,77.286917,335
336,U03077,Nehru Nagar,28.568283,77.253917,336
337,U03024,Lajpat Nagar Ring Road,28.56533300000001,77.24845,337
338,U02941,Gupta Market,28.564833,77.241433,338
339,U03997A,Gupta Market,28.56485,77.239667,339
340,U02843,MCKR Hospital,28.569166999999997,77.23525,340
341,U02867,Defence Colony,28.573,77.237367,341
342,U02923,Pant Nagar,28.5841,77.2406,342
343,U02930,CGO Complex,28.587033,77.2408,343
344,U02920,Amir Khusro Park / Oberoi Hotel,28.596266999999997,77.240433,344
345,U99968,Delhi Public School,28.598783,77.2406,345
346,U02904,Sunder Nagar,28.602217,77.2404,346
347,U02899,Zoo,28.6084,77.23995,347
348,U02897,National Stadium,28.61168300000001,77.23996700000002,348
349,U02901,ITPO Gate No. 3,28.6155,77.24015,349
350,U02907,Pragati Maidan Gate No. 5,28.618483,77.240183,350
351,U02909,Supreme Court,28.621516999999997,77.24033299999998,351
352,U99740,Pragati Maidan Metro Station,28.623433000000002,77.240567,352
353,U02934,ITO (Agarwal Chowk),28.628867,77.24115,353
354,U02929,Express Building,28.6339,77.2408,354
355,U02932,Delhi Gate,28.637266999999998,77.24091700000002,355
356,U02918,Darya Ganj,28.644033,77.24035,356
357,U02893,Subhash Park,28.649317,77.23935,357
358,U02879,Jama Masjid,28.651317,77.237833,358
359,U02858,Red Fort,28.65405,77.23645,359
360,U02807,Old Delhi Railway Station,28.6579,77.2319,360
361,DC5414,Sarang Pur Village,28.542754,76.888747,361
362,DC5412,JhulJhuli Village,28.534792,76.904321,362
363,DC4023,Jhul-Jhuli Check Post / Ghumanhera Crossing,28.535283000000003,76.90933299999998,363
364,DC4578,Malik Pur Village Crossing,28.552333,76.907483,364
365,DC4025,Ujwa Gaon,28.568783000000003,76.9067,365
366,DC4009,Ujwa School,28.570387,76.90719,366
367,U00035,Ujwa Village,28.5717,76.9077,367
368,DC4026,Samaspur Khalsa,28.578549,76.909937,368
369,U00050,Jaffarpur Hospital,28.5948,76.9152,369
370,U00055,Rawta Crossing,28.600355,76.915846,370
371,U00069,Surehra Crossing,28.604416999999998,76.9324,371
372,U00078,Mitraon School,28.606975,76.93930999999998,372
373,U00086,Mitraon Village,28.608213,76.94733599999998,373
374,DC4746,Mitraon Extension,28.6084,76.951551,374
375,U00116,Indra Service Station,28.608833,76.96001700000002,375
376,U00158,Nanak Piyau,28.609467,76.96776700000002,376
377,U00168,Prem Nursary,28.610333,76.9713,377
378,U00184,Khera More / Ghuman Hera Crossing,28.611483000000003,76.97586700000002,378
379,U00202,Jharoda Crossing,28.613575,76.979586,379
380,U00192,Najafgarh Terminal,28.614689000000002,76.97754300000003,380
381,U01725,Shalimar Bagh (Ring Road),28.7033,77.1689,381
382,U01667,Ashok Vihar Crossing,28.701996,77.165407,382
383,U01613,Shalimar Bagh Richi Rich,28.70135,77.16376,383
384,U01576,Prem Bari Pul,28.6999,77.1583,384
385,U01546,Punjab Kesari (Subhash Palace Depot),28.695999999999998,77.1558,385
386,DC0031,Wazirpur DTC Depot / Netaji Subhash Palace,28.6937,77.1512,386
387,U01448,Pitampura ND Block,28.6954,77.1461,387
388,U01392,Kohat Enclave Metro Station,28.6972,77.1421,388
389,U01338,VaishaliEnclave / Kapil Vihar,28.6997,77.1371,389
390,U01298,JD Block Pitam Pura,28.7014,77.1347,390
391,U01272,PitampuraMetro Stn (MadhuvanChowk),28.7029,77.1325,391
392,U01252,Madhuban Chowk Outer Ring Road,28.70132000000001,77.1274,392
393,U01199,SaraswatiVihar C Block,28.700133,77.12525,393
394,U01135,Deepali Chowk,28.6980166666667,77.1195,394
395,U01086,Kali Mata Mandir,28.6969,77.1154,395
396,U01059,Puspanjali Enclave,28.6958,77.1115,396
397,U01043,Rohini Depot - 3,28.6952,77.1094,397
398,U99992,Mangolpur School,28.6945,77.1066,398
399,U00979,Mangolpur Kalan Village,28.695616666666695,77.1011833333333,399
400,DC0011,Avantika Crossing,28.69875,77.0964,400
401,U00896,Mangol Pur Khurd,28.699966999999997,77.094383,401
402,U00832,Mangolpuri Y Block,28.702717,77.089517,402
403,U00797,Budh Vihar,28.704333,77.086917,403
404,U00765,Krishna Vihar,28.70965,77.081117,404
405,U00723,Brahm Shakti Hospital,28.7125,77.0805,405
406,U00682,Pooth Kalan,28.714233,77.07691700000002,406
407,U00618,Rohini Sec-21,28.7187,77.0696,407
408,U00591,Begumpur,28.7217,77.06495,408
409,U00544,Rajeev Nagar,28.7247333333333,77.05875,409
410,U00518,Karala Pathsala Jain Mandir,28.726356,77.053345,410
411,U00484,Sukhbeer Nagar,28.727533,77.04895,411
412,U00465,Rama Vihar,28.728583,77.045817,412
413,U00443,Karala School,28.730681,77.039664,413
414,U00429,Karala Village,28.7315,77.03699999999998,414
415,U99798,Karala Crossing,28.731601,77.031627,415
416,U99807,Desu Office,28.7325,77.0284,416
417,DC0007,Shiv Vihar Bheem Chowk,28.7333,77.025,417
418,U99798A,Radha Swami Satsang,28.73384,77.0208,418
419,U00352,Shivam Plywood,28.7352,77.0125833333333,419
420,DC4667,Kanjhawla Chowk,28.737910999999997,77.00692,420
421,DC4668,Nirmal Hospital,28.73842800000001,77.00439899999998,421
422,DC4670,Ladpur Village,28.739490000000004,76.997517,422
423,DC4671,Rajendra Lakra Public School,28.740338,76.994313,423
424,DC4672,Sant Vivekanand School,28.74225,76.9865,424
425,DC4673,Vriddha Ashram,28.744466999999997,76.980917,425
426,DC4674,Jonti Crossing,28.74615,76.978217,426
427,DC4675,Jonti Village,28.753289000000002,76.971848,427
428,DC4676,Tatesar Village,28.755871999999997,76.968475,428
429,DC4678,Balaji Enclave,28.767498,76.96455999999998,429
430,DC4679,Punjab Khor Village,28.773006,76.962094,430
431,DC4680,Punjab Khor Village,28.7779,76.9614,431
432,DC4682,Divya Dham Ashram,28.788119000000002,76.962441,432
433,DC4681,Jatt Khor Crossing,28.79069,76.962473,433
434,DC4909,Qutub Garh Enclave,28.7977,76.960533,434
435,DC4910,Qutub Garh Village,28.801283,76.962067,435
436,DC4911,Katewara Crossing,28.8061001,76.9658501,436
437,DC5047,Katewara Colony,28.805956,76.96986700000002,437
438,DC5048,Katewara Village,28.805220000000002,76.97682900000002,438
439,DC3811,Rajghat Cluster Depot,28.643931,77.252592,439
440,U03043,Rajghat Gandhi Darshan,28.6389,77.2502,440
441,U03011,Gandhi Darshan,28.636983,77.24726700000002,441
442,U03007P,Indira Gandhi Stadium,28.6336,77.2469,442
443,DC3679,IP Power House / ITO Ring Road,28.624066999999997,77.247683,443
444,U03025,Indraprastha Depot,28.6195,77.249,444
445,U03040,Pragati Power Station,28.616,77.2501,445
446,U03052,Railway Road Bridge,28.61093300000001,77.2518,446
447,U03075,Nizamuddin Road Bridge,28.6034,77.254233,447
448,U03147,ISBT Sarai Kale Khan,28.5911,77.258083,448
449,DC0097,Kushak Nallah Depot,28.580073,77.224903,449
450,DC0100,Lodhi Colony,28.5847,77.2247,450
451,U02735,Central School Lodhi Road,28.584967,77.22823299999997,451
452,U02783,J L Nehru Stadium,28.5841,77.2301,452
453,U02775,Sewa Nagar Flyover,28.57875,77.22953299999998,453
454,U02732,Defence Colony (Homyopathic College),28.571983000000003,77.22766700000003,454
455,U02710,PT College Kotla,28.569816999999997,77.22655,455
456,U02788,Andrews Ganj,28.565966999999997,77.2306,456
457,U99989,Gupta Market,28.565133000000003,77.239733,457
458,U02951,Lajpat Nagar 2 Ring Road,28.565116999999997,77.242,458
459,U02950,Lajpat Nagar Ring Road,28.5658,77.249117,459
460,U03041,Lajpat Nagar Crossing,28.564183,77.250367,460
461,U03047,Garhi Village,28.5624,77.251417,461
462,U03102,B-Block East of Kailash,28.562167,77.255617,462
463,U03142,C-Block East of Kailash,28.56215,77.2582,463
464,U03162,SNPD,28.561333,77.26011700000002,464
465,U03190,Laghu Udyog Sansthan (ModiMill),28.5565,77.2648,465
466,U03196,NSIC,28.553683000000003,77.26513299999998,466
467,U03181,Kalkaji Mandir,28.55205,77.2645,467
468,U03174,Kalkaji Mandir (MaaAnandmayeeMarg),28.5479,77.263,468
469,U03185,Govind Puri Metro Station,28.545216999999997,77.2641,469
470,U03206,Kalkaji Depot,28.5375,77.2674,470
471,U03219,C-Lal Chowk,28.534033,77.26866700000002,471
472,DC0136,CRPF Camp / Crown Plaza,28.527866999999997,77.27238299999998,472
473,DC0137,Bank,28.5261,77.2736,473
474,U03297,Okhla Ph-I,28.5203,77.2777,474
475,DC1311,ESI Hospital,28.51425,77.28133299999998,475
476,U99679Z,Tehkhand Depot DTC,28.510917,77.28116700000002,476
477,U03321,Prem Nagar,28.5044,77.2793,477
478,U03366,Lal Kuan,28.5026,77.28451700000002,478
479,U03435,Surajkund Crossing,28.5017,77.291,479
480,U03466,Prehlad Pur,28.5,77.29463299999998,480
481,U03520,Badarpur M B Road,28.4995,77.299267,481
482,U03544,Jaitpur Crossing,28.497217,77.302647,482
483,U03556,Badarpur Border,28.4927,77.30381700000002,483
484,DC4311,Dichau Kalan Depot,28.628749,76.997316,484
485,DC4312,Nirmal Vihar,28.625333,76.992517,485
486,DC4313,Udaseen Ashram,28.621648999999998,76.988196,486
487,DC4314,Dichau Chowk,28.616915000000002,76.98384300000002,487
488,U00233,Najafgarh Delhi Gate,28.611742,76.98566,488
489,U00231,Chawla Stand Najafgarh,28.6084,76.9855,489
490,U00251,BDO Office Roshan Pura,28.600873999999997,76.988759,490
491,U00255,Durga Vihar,28.596578000000004,76.99048499999998,491
492,U00263,Deenpur Village,28.5933,76.992,492
493,U00267,Goela Dairy Crossing,28.591193,76.993282,493
494,DC4323,Shyam Vihar,28.591480999999998,77.000564,494
495,DC4325,Goyla Village,28.587801000000002,77.008562,495
496,DC4327,Taj Pur More,28.583311,77.011776,496
497,DC4329,St Thomas School Goyla Vihar,28.581902000000003,77.015056,497
498,DC4331,Nehru Bus Stand Goyla Dairy,28.580514,77.01926800000003,498
499,DC4333,Goyla Dairy,28.579886,77.021759,499
500,DC4335,Jhankar Crossing,28.579252,77.024293,500
501,DC4337,Qutub Vihar Phase-I Kikar Stand,28.5784,77.029767,501
502,DC4339,Police Post,28.577431,77.035333,502
503,DC4343,Amrohi More,28.574817,77.0513,503
504,DC4345,Dwarka Sec-19 Modern School,28.578166999999997,77.0542,504
505,DC4198,NHAI Building/ Dwarka Sec-10 Metro Station,28.579068,77.05911800000001,505
506,DC4199,President Cabinet Apartments,28.582753000000004,77.062279,506
507,DC4200,Princess Park/ Airforce Noval Office Enclave,28.587688,77.066452,507
508,DC4201,Dwarka Sec-6/7,28.59126,77.069535,508
509,DC4202,Dwarka Sec-6 Telephone Exchange,28.593228000000003,77.070994,509
510,DC3646,Dwarka Crossing / Maharaja Agrasen Hospital,28.5931,77.07968000000002,510
511,U00731,Health Centre,28.592067,77.0813,511
512,U00780,Mangla Puri Terminal,28.590099,77.086907,512
513,U02523A,Shivaji Stadium Terminal,28.632763,77.215806,513
514,DC3751,Shaheed Bhagat Singh Marg,28.63325,77.212283,514
515,U02415,Shaheed Bhagat Singh Marg,28.6334,77.2092,515
516,U02288,Gole Market,28.6347,77.2037,516
517,U02283,PS Mandir Marg,28.638783,77.20345,517
518,U02306BM,Balmiki Mandir,28.639867,77.2043,518
519,U02295,Panchkuian Road Banwai Lal Hospital,28.6417,77.2042,519
520,U02240,Meghdoot Bhawan,28.643666999999997,77.201033,520
521,U02105,Pusa Road Petrol Pump Sadhu Vaswani Marg,28.644583,77.192833,521
522,U02028,Karol Bagh Metro Station,28.643911,77.18874699999998,522
523,U99926,Rajendra Place / Karol Bagh Telephone Exchange,28.642667,77.180083,523
524,U01796,East Patel Nagar,28.6423,77.1733,524
525,U01717,South Patel Nagar (Metro Station),28.6453,77.1683,525
526,U01665,West Patel Nagar,28.647503999999998,77.164974,526
527,U01575,Shadipur DTC Colony Metro Station,28.6512,77.1585,527
528,U01543,Shadipur Depot,28.653116999999998,77.1555,528
529,U01472,Moti Nagar Industrial Area,28.657317,77.1485,529
530,U01399,Karampura Terminal,28.660999999999998,77.142383,530
531,U01374,B Block New Moti Nagar,28.6635,77.1406,531
532,U01337,Punjabi Bagh Terminal,28.66935,77.1374,532
533,U01463,Britannia Chowk Shakurpur,28.684284,77.147583,533
534,U01488,Telephone Exchange Shakurpur,28.686484000000004,77.15093399999998,534
535,U01521,Wazirpur DTC Depot Ring Road,28.691926000000002,77.153426,535
536,U01504,Guru Govind Singh College,28.69793300000001,77.151517,536
537,U01498,TV Tower (Power House),28.6997,77.1512,537
538,U01426,DAV School,28.6998,77.1438,538
539,U99722,Pitam Pura KD Block,28.7002,77.1411,539
540,U01361,Pittampura AP-Block,28.7031,77.1395,540
541,U01345,Pitampura CD-Block,28.7063,77.1382,541
542,U01294,Pitampura Power House,28.704745799999998,77.13201409999998,542
543,U01270,Madhuban Chowk (Outer Ring Road),28.7048,77.1322,543
544,U01251,Madhuvan Chowk,28.7046,77.13,544
545,U01194,Sai Baba Chowk Rohini,28.708000000000002,77.125,545
546,U01174,Sai Baba Chowk Rohini,28.709054,77.123651,546
547,U01101,Rohini Sec 7 and 8,28.711431,77.120195,547
548,DC0005,Rohini West Metro Station,28.715,77.115,548
549,U01081,Rohini Depot 1 Sec 6 (Ambedkar Hospital),28.7158,77.11398299999998,549
550,U01064,Rajeev Gandhi Cancer Hospital,28.71725,77.11183299999998,550
551,U01033,Rithala Metro Station,28.7196,77.1084,551
552,U01006,Pal Colony,28.7235,77.1036,552
553,DC0040,Rithala Village,28.725917,77.10010600000003,553
554,DC0041,Sec-24 Rohini Main Road,28.726999999999997,77.0984,554
555,DC0042,Dera Satguru Sewaram Sahai Sec 24/25,28.72965,77.09468299999997,555
556,DC0043,Sec-24 Rohini,28.7283,77.0926,556
557,DC0044,Hanuman Mandir Rohini Sec 24,28.722883000000003,77.087733,557
558,DC0045,Rohini Sec 23 Pkt 1 (Green Hill Aptt.),28.71930900000001,77.08471,558
559,DC4419,Ghuman Hera Village,28.532153000000005,76.92232299999998,559
560,DC4420,Ghuman Hera More / Shikarpur Crossing,28.537115000000004,76.922376,560
561,DC4421,Dewta Wala mandir,28.548976,76.930686,561
562,DC4422,Hasanpur Village,28.556572999999997,76.936719,562
563,DC4423,KharKhari Rondh,28.561759999999996,76.941887,563
564,DC4424,Pandwala Crossing,28.574027,76.95235600000002,564
565,DC4425,KharKhari Jatmal / Surhera Crossing,28.582168,76.957902,565
566,DC4426,KharKhari Nahar / Khera Dabur,28.587040000000002,76.959128,566
567,DC4432,Khera Village 2,28.596312,76.964794,567
568,DC4784,Krishna Nagar / Gopal Nagar,28.606790999999998,76.972726,568
569,DC4461,Jhatikra Crossing Pandwala Road,28.584747999999998,76.995233,569
570,DC4452,Rewla Tajpur Crossing,28.572354999999998,76.980956,570
571,DC4454,Purani Basti Rewla Khanpur,28.56958400000001,76.977685,571
572,DC5259,Rewla Khanpur Depot,28.568610999999997,76.97664,572
573,DC5415,Tikri Khurd,28.835983000000002,77.123838,573
574,DC4967,Tikri Khurd Crossing / AMPC,28.83617700000001,77.12839,574
575,DC4979,Tikri Khurd Crossing / AMPC,28.835603999999996,77.128935,575
576,DC4980,Khampur Village,28.824476,77.132311,576
577,DC5058,Bakauli Village (GT Road),28.810288,77.13709200000002,577
578,DC5082,Shani Dham Mandir GT Road,28.80415,77.14274,578
579,DC4829,Pwd Office,28.8012,77.13896700000002,579
580,DC4830,Alipur Village GT Road,28.796616999999998,77.1396,580
581,DC4832,Jind Pur Crossing,28.793233,77.14415,581
582,DC4833,Sai Mandir,28.78865,77.141467,582
583,DC4834,Budhpur GT Road,28.782107,77.141601,583
584,DC4835,Jain Mandir,28.77715,77.14263299999998,584
585,DC4836,Nangli Puna,28.774167,77.14326700000002,585
586,DC4837,Gurudwara Siraspur GT Road,28.764956,77.146126,586
587,U00736,Kapashera Border,28.522481,77.082442,587
588,U00759,Kapashera Village,28.524517,77.0837,588
589,U00808,Kapashera Crossing,28.5313,77.08815,589
590,U00834,Samalkha Village,28.534652,77.090446,590
591,U00856,Samalkha Crossing,28.538204999999998,77.09143399999998,591
592,NS0198,Puspanjali G Block,28.5415,77.07682,592
593,U00527BP,Dwarka Road,28.544217,77.065083,593
594,U00527,Bharthal Under Pass,28.547566999999997,77.057117,594
595,DC4186,Dwarka Sec-21 Metro Station,28.55175,77.0565,595
596,DC4184,Dwarka Sec-21 Crossing,28.554109999999998,77.05858,596
597,DC4288,Dwarka Sec 22,28.55806500000001,77.06188900000002,597
598,DC4935,Dwarka Sec-20/21 Crossing,28.56415,77.06296999999998,598
599,DC4929,Dwarka Sec-8 Metro Station,28.56622,77.06691,599
600,DC4930,Shahbad Mohammad Pur School,28.56294,77.07074,600
601,DC4931,Shahbad Mohammad Pur Village,28.560113,77.07154200000002,601
602,DC4932,Shahbad Mohammad Pur School,28.56278,77.07072,602
603,DC4933,Dwarka Sec-8 Metro Station,28.56637000000001,77.06676999999998,603
604,DC4936,Dwarka Sec-8,28.56852,77.06788,604
605,DC4937,Bagdola Village,28.57252,77.06916,605
606,DC4938,Dwarka Sec-8 DTC Depot,28.5758,77.07134,606
607,DC4939,National Malariya Research Centre (Dwarka),28.5765,77.07594,607
608,DC4940,Dada Dev Mandir,28.57818,77.07708000000002,608
609,DC4941,National Malariya Research Centre (Dwarka),28.57876,77.07616,609
610,DC4942,Royal Residency (Dwarka),28.5815,77.0703,610
611,DC4943,Munirka Flats (Dwarka),28.58367,77.06701,611
612,U99908,Dwarka Sec 1,28.594483,77.073583,612
613,DC4846,Sulabh International Centre,28.59687000000001,77.08094399999997,613
614,DC4844,Mahaveer Enclave III,28.60084,77.08199,614
615,DC4843,Dashrath Puri,28.60353,77.08266,615
616,DC4841,Vijay Enclave (Palam-Dabri Road),28.60654000000001,77.08111,616
617,DC4839,Dabri Village,28.608043,77.08195400000002,617
618,U00781,Dabri Xing,28.6128,77.0862,618
619,U00807,C2D Janakpuri,28.614459999999998,77.086985,619
620,U00810,C4E Janakpuri,28.616659000000002,77.087976,620
621,U00820,C2B Janak Puri,28.621221999999996,77.088818,621
622,DC4065,Bharti College,28.62235,77.09365,622
623,DC4066,Virender Nagar / Dilli Haat,28.6232,77.09615,623
624,DC4944,Hari Nagar Depot,28.62541,77.10109,624
625,U00967,G Block Hari Nagar,28.627917,77.10006700000002,625
626,U00950,Fateh Nagar,28.631133000000002,77.098567,626
627,U00928,Tilak Nagar Jail Road,28.635737,77.096692,627
628,DC3534,Tilak Nagar Crossing (Najafgarh Road),28.635322,77.092959,628
629,DC3535,Janak Puri Check Post,28.6341,77.089333,629
630,U00773,Janakpuri East Metro Station/ Nangli Zalib,28.6323,77.08465,630
631,U00712,District Centre Nazafgarh Road,28.630416999999998,77.079983,631
632,U00679,Dholi Piao,28.629,77.076367,632
633,U00617,Vikaspuri Crossing (Shivaji Marg),28.626316999999997,77.069689,633
634,U00600,Uttam Nagar Terminal,28.625329,77.066948,634
635,U00779,Mangla Puri Terminal,28.5899833333333,77.0870166666667,635
636,U00732,Health Centre,28.590999999999998,77.0814,636
637,U00714,Dwarka Crossing / Maharaja Agrasen Hospital,28.592584999999996,77.080442,637
638,U99641,Dwarka Sec 1,28.594283,77.073867,638
639,U00626,J M International School,28.59535,77.0701,639
640,U00589,Dwarka Sec 2-6,28.597367,77.064883,640
641,U00558,Madhu Vihar,28.5998,77.0612,641
642,U00526,Rajapuri,28.603781199999997,77.05501459999998,642
643,DC3647,Matiyala Xing,28.605083,77.0517,643
644,U00469,DPS Matiyala,28.60445,77.04625,644
645,U00459,Dwarka Sec 3-4,28.602633,77.043217,645
646,U00449,Dwarka Sec 13-3 Xing,28.602566999999997,77.040983,646
647,U00439,MRV School Sec 13 Dwarka,28.603917,77.0389,647
648,U00424,Dwarka Sec 13,28.605566999999997,77.036383,648
649,U00416,NSIT (Netaji Subhas Institute) / Sulahkul Mandir,28.607616999999998,77.035033,649
650,DC3626,Suraj Vihar,28.613433,77.03315,650
651,U00389,Kakrola More,28.618904999999998,77.029949,651
652,U00377,Kakrola Bridge,28.619758,77.024856,652
653,U00367,Nangli Dairy,28.619771999999998,77.017944,653
654,DC4881,Chhathh Ghat Park,28.618803000000003,77.01521899999999,654
655,U00354,Arjun Park,28.618083,77.013083,655
656,U00329,Nangli Sakrawati Crossing,28.616344,77.007924,656
657,DC3562,Nangli Sakrawati,28.614715000000004,77.004077,657
658,U00293,Sai Baba Mandir (Nazafgarh),28.613433,76.998983,658
659,U00285,Power House NajafGarh,28.612933333333306,76.9955666666667,659
660,U00261,Tuda Mandi,28.612458,76.99146,660
661,U03064,Nizamuddin Railway Station,28.586388,77.253259,661
662,U03061,Rajdoot Hotel,28.5825,77.2527,662
663,U03122,Ashram (Hari Nagar),28.573817,77.257333,663
664,U03063,Sri Niwaspuri / PG DAV College Lajpat Nagar,28.56675,77.253117,664
665,U99867A,ESI Hospital Okhla,28.515290000000004,77.281062,665
666,U03362,Central Work Shop II,28.5164,77.2835,666
667,DC1102,Okhla Depot IV CWS II,28.51835,77.284767,667
668,DC3707,ISBT Kashmere Gate Terminal,28.666959999999996,77.227456,668
669,U02517,Tees Hazari Court,28.666662,77.21925999999998,669
670,U99922,St Stephen Hospital,28.6671,77.2149,670
671,U02411,Ice Factory,28.666851,77.209097,671
672,U02348,Roshnara Road,28.669034999999997,77.204663,672
673,U02235,Roshnara Bagh,28.6717,77.2007,673
674,U02246,Clock Tower,28.6774,77.201633,674
675,U02208,Shakti Nagar,28.6804,77.1993,675
676,U02143,Shakti Nagar Nangia Park,28.679846,77.195746,676
677,U02040,Chowki No 2 / Gulabi Bagh Crossing,28.677233,77.188967,677
678,U02023,Gulabi Bagh,28.674998,77.188525,678
679,U01992,Shastri Nagar A Block,28.672401,77.186038,679
680,U01945,Subhadra Colony,28.671104999999997,77.184219,680
681,U01912,Shastri Nagar Metro Station,28.669997,77.181336,681
682,U01837,Shastri Nagar E Block,28.6711,77.17605,682
683,U01790,Shastri Nagar Shiv Mandir,28.6716,77.173,683
684,U01727,Inderlok Metro Station,28.673633000000002,77.168983,684
685,U01664,Kanhaiya Nagar,28.680933000000003,77.165433,685
686,U01627,B3 Keshav Puram,28.6861,77.1629,686
687,U01621,B-4 Keshav Puram,28.687583,77.162267,687
689,U01014,Mangol Pur School (Kanjhawla Road),28.694582,77.10507,689
690,U00934,Avantika Xing,28.6982,77.097,690
692,U00658,Rohini Sec 20/21 More,28.7155,77.0743,692
693,DC4512,Satyapuram Jharoda,28.665305,76.943439,693
694,DC4514,Jharoda Nala Crossing,28.6586,76.9479,694
695,DC4493,Jharoda Kalan,28.655083,76.95008299999998,695
696,DC4494,Jharoda Village,28.65085,76.9531,696
697,DC4495,S.S. Kanya Vidhyalaya,28.646688,76.956119,697
698,DC4496,PTS Jharoda,28.642863000000002,76.958365,698
699,DC4497,CRPF Jharoda,28.638804999999998,76.960707,699
700,DC4503,Sainik Enclave Jharoda,28.633583,76.96378299999998,700
701,DC4498,Saraswati Kunj Jharoda,28.63045,76.965683,701
702,DC4504,Naveen Palace,28.627867,76.967333,702
703,DC4499,Baba Haridass Nagar,28.623817,76.970483,703
704,DC4500,New Anaj Mandi,28.61905800000001,76.974408,704
705,DC4501,Surakh Pur Crossing,28.6155,76.976417,705
706,U00598,Uttam Nagar Terminal,28.625449,77.066447,706
707,DC3691,A-3 Janak Puri,28.619633,77.079183,707
708,U00766,C-2 Janakpuri,28.6219,77.0842,708
709,U00825,C2B Janak Puri,28.621752,77.092199,709
710,U00818,C4E Janakpuri,28.617217,77.08834499999998,710
711,U00870,C-3 Janakpuri,28.615416999999997,77.09258299999998,711
712,U00903,C-4H Janakpuri,28.616333,77.09525,712
713,U00939,Janakpuri C-5A,28.6148,77.0977,713
714,U00956,Desu Colony,28.6111,77.0989,714
715,U01069,Zunk Market,28.618433000000003,77.11235,715
716,U01100,Gulab House,28.622266999999997,77.1171,716
717,U01115,Bobby Soap,28.62395,77.1186,717
718,U01125,PS Mayapuri,28.625366999999997,77.11975,718
719,U01175,Metal Forging,28.629,77.122817,719
720,U01217,Government Press,28.634617,77.12763299999997,720
721,U01231,Mayapuri Depot,28.63685,77.12835,721
722,U01305,Naraina Vihar / Indra Market,28.62688300000001,77.135333,722
723,U01348,Payal Cinema,28.6314,77.1384,723
724,U01436,Loha Mandi,28.641383,77.145217,724
725,U01494,Bentax,28.644717,77.147667,725
726,U01466,Naraina Depot,28.64905,77.1513,726
727,U01520,Pandav Nagar,28.650051,77.153678,727
728,U01549,Shadipur Colony,28.6516,77.1561,728
729,U01581,Shadipur Metro Station,28.6515,77.1587,729
730,U01663,West Patel Nagar,28.64795,77.164783,730
731,U01729,South Patel Nagar (Metro Station),28.6454,77.1689,731
732,U01769,East Patel Nagar,28.642967,77.17315,732
733,U01843,Rajendra Place,28.6425,77.1773,733
734,U99926A,Telephone Exchange Karol Bagh,28.64315,77.181917,734
735,U02034,Karol Bagh Metro Station,28.6442,77.189,735
736,U02113,Pusa Road Petrol Pump Sadhu Vaswani Marg,28.6448,77.1934,736
737,U02237,Meghdoot Bhawan,28.644000000000002,77.200983,737
738,U02285,Videocon Tower,28.6441,77.2036,738
739,U02396,Paharganj Police Station,28.64615,77.208267,739
740,U02482,Dispensary Paharganj,28.6452,77.2133,740
741,U02693,Ajmeri Gate / Kamla Market,28.643383,77.22573299999998,741
742,U02744,JLN Marg,28.64205,77.22833299999998,742
743,U02781,Zakir Husain College,28.64115,77.230067,743
744,U02820,Turkman Gate / G B Pant Hosipatal,28.6417,77.2333,744
745,U02841,Delite Cinema,28.6412,77.2352,745
746,U02885,Delhi Gate,28.640766999999997,77.238667,746
747,U02856,Red Fort,28.6541,77.23643299999998,747
748,U02839,GPO,28.661933,77.234583,748
749,U02786,Guru Govind Singh University (Kashmere Gate),28.6652,77.2303,749
750,U02785,ISBT Kashmere Gate,28.666756,77.229348,750
751,U02681,Mori Gate Terminal,28.666517,77.225883,751
752,DC5262,Bawana Sec 1 Cluster Depot,28.794928000000002,77.041391,752
753,DC4529,JJ Colony Bawana Road,28.806709,77.047729,753
754,DC4530,Jain Shukla Mandir,28.81186,77.053907,754
755,DC4531,Delhi Jal Board Bawana,28.815521,77.058038,755
756,DC4557,Sannoth Crossing / Ghoga Crossing,28.819734999999998,77.063843,756
757,DC5260,Sannoth Village,28.815609999999996,77.07098,757
758,DC5103,Holambi Kalan JJ Colony,28.809702,77.088087,758
759,DC5362,Holambi Kalan Fatak,28.809403999999997,77.098773,759
760,DC4997,Holambi Kalan Crossing,28.809357000000002,77.10746,760
761,DC5008,Jeet Farm,28.800239,77.11466300000002,761
762,DC5009,Holambi Khurd Crossing,28.797139,77.117385,762
763,DC5010,Alipur Garhi,28.798040000000004,77.127346,763
764,DC5011,Alipur Village,28.797253,77.133138,764
765,DC4808,Pwd Office,28.8022,77.1386,765
766,DC4965,Bakauli Village,28.811931,77.13565200000002,766
767,DC4966,Khampur Village,28.824804999999998,77.13183000000002,767
768,DC5417,Tikri Khurd Crossing,28.835210999999997,77.12846,768
769,DC5416,Tikri Khurd,28.835878000000005,77.1238,769
770,U03656,Anand Vihar ISBT Terminal,28.648459999999996,77.317489,770
771,U03710,Ram Prastha Crossing,28.660716999999998,77.319917,771
772,U03713,Ram Prastha Temple,28.6632,77.3202,772
773,U03724,Surya Nagar,28.666933,77.321467,773
774,DC3662,Shahadara Border (Dilshad Garden Mtr Stn),28.676167,77.32123299999998,774
775,U03689,Jhilmil Xing,28.6761,77.3174,775
776,U03647,Dilshad Garden GT Road,28.675883000000002,77.3118,776
777,U99890,Telephone Exchange,28.675817,77.309217,777
778,U03515,Mansarovar Park Metro Station,28.675479,77.300119,778
779,U03296,Welcome Colony Metro Station,28.671999999999997,77.275,779
780,U03241,Welcome Colony,28.6711,77.2698,780
781,U03198,Seelampur Metro Station,28.670507,77.26573,781
782,U03167,Dharam Pura,28.670717,77.26191700000003,782
783,U03125,Shastri Park,28.6723,77.2571,783
784,DC3593,Shastri Park,28.672867,77.253967,784
785,U03020,Shyam Giri Mandir,28.67382000000001,77.248024,785
786,DC3594,Shastri Park DMRC Depot,28.674166999999997,77.243433,786
787,U02948,Shastri Park Metro Depot,28.67343300000001,77.24118299999998,787
788,DC3595,ISBT Bridge,28.6690446503364,77.2282825671056,788
789,U02382,Azad Market,28.6627,77.2075,789
790,U02319,Bara Hindu Rao,28.6608666666667,77.20415,790
791,U02291,Model Basti,28.6572,77.2038,791
792,U02202,Guru Govind Singh Marg,28.6552,77.199,792
793,U02121,Tibiya College,28.6574,77.1947,793
794,DC3657,Ram Jas Road,28.658993,77.191289,794
795,U99836,Liberty Cinema,28.6598,77.1888,795
796,U01968,Government Quarter Sarai Rohila,28.6613,77.18463299999998,796
797,U01925,Sarai Rohila,28.662416999999998,77.1822,797
798,U01812,Anand Parvat Industrial Area,28.664314,77.175758,798
799,U01744,Daya Basti Flyover,28.666346,77.169943,799
800,U01672,Zakhira Flyover,28.668360999999997,77.165364,800
801,U01533,Ashok Park,28.67118300000001,77.15675,801
802,U01491,Ram Pura,28.671883,77.153033,802
803,U01459,Punjabi Bagh Power House,28.672673,77.14692099999998,803
804,U01417,Punjabi Bagh Terminal (Rohtak Road),28.67315,77.143517,804
805,U03305,C 4 Yamuna Vihar,28.702233000000003,77.27835,805
806,U03272,Yamuna Vihar Brijpuri,28.702633000000002,77.2737,806
807,U03242,B-Block Yamuna Vihar,28.702917,77.269733,807
808,U99761,Bhajanpura,28.703351,77.263706,808
809,U03130K,Khajuri,28.7039,77.2562,809
810,DC3588,Garhi Maidu,28.6992,77.255533,810
811,U03097,Gamri Extn Pusta No.5,28.6957,77.2551,811
812,U03080,Kartar Nagar,28.68945,77.25416700000002,812
813,U03086,Jagjit Nagar,28.686317,77.25456700000002,813
814,U03098,Pusta No-2,28.683767,77.255217,814
815,DC3590,New Usman Pur Pusta No-1,28.679983,77.256183,815
816,DC3591,Zero Pusta,28.6778,77.256783,816
817,DC3592,Shastri Park Pusta Road,28.674017,77.2563,817
818,U02698,Ludlow Castle,28.672333333333306,77.2258666666667,818
819,DC3654,Exchange Store / Civil Lines Metro Station,28.676783,77.22483299999998,819
820,DC0016,IP College,28.679609999999997,77.22395999999998,820
821,U02628,Old Secretariat (Postal Account Office),28.683783333333306,77.22215,821
822,DC0017,Vidhan Sabha Metro Station,28.6877833333333,77.2214333333333,822
823,U02609,Khyber Pass,28.6906,77.2211666666667,823
824,U02571,Mall Road,28.693617,77.2184,824
825,U02504,Vishwa Vidyalaya Metro Station,28.695193,77.214053,825
826,U02461,INS Hostel,28.696216666666693,77.2116,826
827,U02380,GTB Nagar / Haqiqat Nagar,28.698224,77.207503,827
828,U02665,Minto Road Terminal,28.639416999999998,77.223773,828
829,U02663,Shivaji Park,28.638734999999997,77.224176,829
830,U02634,Super Bazar,28.632583,77.22305,830
831,U02543,Palika Kendra,28.628566999999997,77.21678299999998,831
832,U02492,P S Parliament / Jantar Mantar,28.625448,77.214345,832
833,U02478,Aakashwani Bhawan,28.62045,77.212633,833
834,U02497,Krishi Bhawan,28.615,77.2124,834
835,U02481,Udyog Bhawan,28.6126,77.2122,835
836,U02436,Sunehri Masjid/ G Block,28.6094,77.2097,836
837,U02456,Krishan Menon Marg,28.6051,77.2111,837
838,U99974A,PS Tuglak Road,28.599916999999998,77.21131700000002,838
839,U99871,Tughlaq Crescent,28.5949,77.212,839
840,U02480,SJ Madrasa,28.586683,77.212767,840
841,U02475,SJ Airport,28.5841,77.2126,841
842,U02441,INA Colony,28.5759,77.2102,842
843,U02417,Kidwai Nagar,28.5735,77.2095,843
844,U02385,AIIMS,28.566983,77.20795,844
845,U02381,Yusuf Sarai,28.5627,77.2077,845
846,U02362,Green Park,28.5572,77.2068,846
847,U02326,Hauz Khas,28.5529,77.2051,847
848,U02290,Padhmini Enclave,28.5498,77.2038,848
849,U02258,IIT Gate,28.5462,77.2025,849
850,U02279,Panchsheel Club / Sarvpriya Vihar,28.5439,77.2052,850
851,U02429,Bhavishya Nidhi Enclave,28.5428,77.209567,851
852,U02460,Begumpur (Malviya Nagar),28.536666999999998,77.209583,852
853,U02439,Malviya Nagar,28.535406,77.20855300000002,853
854,U02302,Aurobindo College,28.5326,77.2046,854
855,U02223,Geetanjali Enclave,28.530316999999997,77.19963299999998,855
856,U02243,PNB Geetanjali,28.529417,77.2014,856
857,U02287,Saket A Block (Malviya Nagar Metro Station),28.528,77.205,857
858,U02412,Press Enclave,28.5282,77.2091,858
859,U02462,HaujRani / MaxHospital,28.5285,77.2119,859
860,U02519,Hauj Rani,28.5297,77.2158,860
861,U02561,Khirki Village,28.530183,77.21835,861
862,DC3716,PSRI,28.53145,77.223883,862
863,U02718,Vocational College,28.532283000000003,77.22695,863
864,U99870,Sheikh Sarai Phase II,28.53305,77.23066700000003,864
865,U02793PV,Pushpa Bhawan,28.526999999999997,77.2312,865
866,U02762,Pushp Vihar,28.5247,77.230317,866
867,U02722,Ambedkar Nagar Terminal,28.515588,77.22728000000002,867
868,U02761,Ambedkar Nagar Depot,28.515266999999998,77.2284,868
869,U02834,Khanpur Extension / Devli Xing,28.514,77.2344,869
870,U02888,Vayu Sena Bad (Tigri),28.5129,77.2389,870
871,U02957,Batra Hospital / Satya Narayan Mandir,28.5124,77.2433,871
872,U03033,Hamdard Nagar / Sangam Vihar,28.512166999999998,77.248667,872
873,U02349,Kendriya Terminal (Pt. Pant Marg),28.6214,77.2064,873
874,U02322,Kendriya Terminal / Gurudwara Rakab Gunj,28.621017,77.205283,874
875,U02277,Talkatora Road,28.6222,77.2031,875
876,U02149,Dr. RML Hospital,28.6224666666667,77.19665,876
877,U02118,Talkatora Stadium Garden,28.621483,77.19461700000002,877
878,U02072A,Sardar Patel Road Xing (11 Murti),28.611,77.1908,878
879,U02039,Palika Kutumb,28.6078,77.1891,879
880,U01951,Bhartiya Sadhu Samaj,28.603917,77.1845,880
881,U01860,Railway Colony (Sardar Patel Marg),28.600783000000003,77.1785,881
882,U01826,Bapu Dham,28.5994,77.1758,882
883,U01765,Officer Enclave S.P Marg,28.596999999999998,77.1713,883
884,U01635,Dhaula Kuan,28.592721,77.163492,884
885,U01578,Golf Club,28.592867,77.158433,885
886,DC3649,R R Line,28.59572,77.150948,886
887,U01356,S O Flats Carriappa Marg,28.6002,77.13973299999998,887
888,NS0257,Thimiyan Park,28.60265,77.133483,888
889,U01208,Kirbi Place,28.6051,77.1269,889
890,U01163,Supply Depot,28.606633000000002,77.123233,890
891,U01080,Janak Setu,28.6104,77.1138,891
892,U01023,Lajwanti Garden,28.613845,77.106342,892
893,U01004A,D Block Janak Puri,28.610606,77.10369,893
894,U00965,SagarPur Vashisht Park,28.609159000000002,77.099659,894
895,U00953,Desu Colony,28.611,77.098783,895
896,U00938J5A,C-5A Janakpuri,28.6155,77.097,896
897,U00863,C-3 Janakpuri,28.61525,77.09236700000002,897
898,U00764,C-2 Janakpuri,28.6216,77.0841,898
899,DC3692,A-3 Janak Puri,28.619583000000002,77.079267,899
900,U00685,C1 Janak Puri,28.6178,77.0771,900
901,U00653,Jivan park,28.6195,77.0736,901
902,U00624,Tilak Pul,28.6213,77.07,902
903,U00603,Uttam Nagar / A1 Janak Puri,28.624233,77.067867,903
904,U00918,Tilak Nagar Terminal,28.636250984916305,77.0957373386509,904
905,U00555,Uttam Nagar,28.622733,77.060223,905
906,U00535,Prem Nagar,28.621961,77.05731,906
907,U00501,Om Vihar,28.621,77.052203,907
908,DC3538,Kiran Garden,28.620317,77.0468,908
909,U00463,Nawada Gaon,28.620169,77.045358,909
910,U00452,Mohan Garden,28.62012,77.0401,910
911,DC3541,Dwarka More Metro Station (Sewak Park),28.619281,77.033966,911
914,U00213,Police Station Najafgarh,28.609483,76.9832,914
915,U00193,NajafGarh Dhansa Stand,28.6115,76.977817,915
916,DC3547,Khera More / Ghuman Hera Crossing,28.611152,76.97521,916
918,U00155,Nanak Piyau,28.609183,76.96718299999998,918
919,U00112,Indra Service Station,28.608535999999997,76.95875500000002,919
920,DC4745,Mitraon Extension,28.608077,76.95177,920
921,U00085,Mitraon Village,28.607988,76.947338,921
922,DC4474,Mundhela Khurd School,28.616065999999996,76.896431,922
923,DC4471,Mundhela Khurd Village,28.617177,76.893091,923
924,DC4819,Jhingola Village,28.830959999999997,77.199706,924
925,DC4820,Jhingola Crossing,28.831184000000004,77.18802,925
926,DC4821,Akbar Pur Majra,28.834531,77.18239399999999,926
927,DC4822,Akbar Pur Majra Crossing,28.832511,77.17918399999998,927
928,DC4823,Bakhtawar Pur Garhi,28.829420000000002,77.178662,928
929,DC4824,Bakhtawar Pur Primary School,28.82583300000001,77.174563,929
930,DC4825,Bakhtawar Pur Village,28.82208,77.171555,930
931,DC4826,Triveni Colony,28.818615,77.16632299999998,931
932,DC4827,Bakhtawar Pur School,28.814533,77.16121700000002,932
933,DC4828,Palla More,28.803359999999998,77.143775,933
934,DC4831,Mcd Store,28.793716999999997,77.142333,934
935,U99993,Jahangirpuri GT Road,28.7252,77.1634,935
936,U02406,Ice Factory (Rani Jhansi Road),28.667237,77.209039,936
937,U03551,Badarpur Border,28.493221999999996,77.303353,937
938,U03996A,Jaitpur Mor,28.497366999999997,77.30211700000002,938
939,U03519,Badarpur M B Road / Rajiv Gandhi Stadium,28.499178000000004,77.29900400000002,939
940,U03465,Prehlad Pur,28.500583000000002,77.293883,940
941,U03434,Surajkund Crossing,28.501566999999998,77.289765,941
942,U03361,Lal Kuan,28.5023,77.2833,942
943,U03331,Prem Nagar,28.5036,77.2801,943
944,DC0138,Maa Anand Mayee Marg,28.5061,77.27835,944
945,U99988A,Tehkhand Depot DTC,28.51095,77.280917,945
946,DC3527,ESI Hospital,28.5143,77.28133299999998,946
947,DC5101,Holambi Kalan Terminal,28.801906,77.096118,947
948,DC5099,Holambi Khurd,28.799903000000004,77.096104,948
949,DC5097,Holambi Khurd DRID College,28.795626000000002,77.098138,949
950,DC5095,Minda Farm,28.795840000000002,77.11041,950
951,U01868,Azadpur Terminal,28.707866999999997,77.179567,951
952,U01966,Model Town-III,28.7061,77.1853,952
953,U02070,Model Town II,28.70425,77.19063299999998,953
954,U02122,Alpana Cinema (Model Town Mtr Stn),28.70300000000001,77.1937,954
955,U02263,New Police Line,28.699533000000002,77.203017,955
956,U02678,Exchange Store / Civil Lines Metro Station,28.6766,77.22501667,956
957,U02862,Red Fort,28.6577,77.2371,957
958,U02884,Jama Masjid,28.6508166666667,77.2384666666667,958
959,U02922,Darya Ganj,28.6460833333333,77.2404,959
960,U02926,Delhi Gate (JLN Marg),28.640024,77.238077,960
961,U02851,LNJP Hospital,28.6401,77.234817,961
962,U02779,Zakir Husain College,28.64115,77.229617,962
963,U02738,JLN Marg,28.6421,77.22785,963
964,U02706,Vivekanand Marg / Minto Road,28.640867,77.22573299999998,964
965,U02523,Shivaji Stadium Terminal,28.632467,77.21565,965
966,DC5230,Rani Khera Depot 2,28.699440999999997,77.033514,966
967,DC4960,Rani Khera Depot Crossing,28.697846999999996,77.027902,967
968,U99813,Rani Khera Village,28.704235999999998,77.027661,968
969,U99789,Rani Khera School / Bhagya Vihar,28.709239,77.027741,969
970,U99809,Mubarak Pur Crossing,28.712816999999998,77.027833,970
971,U99808A,Madan Pur Dabas,28.716453,77.02786,971
972,U99799,Shaheed Bhagat Singh Nagar,28.725016999999998,77.029167,972
973,U00401,Karala Crossing,28.731617,77.03235,973
974,U00426,Karala Village,28.731583,77.03698299999998,974
975,U99700,Karala School,28.7308,77.0398,975
976,U00466,Rama Vihar,28.7288,77.0456,976
977,U00482,Sukhbeer Nagar,28.727633,77.04895,977
978,U00516,Karala Patshala,28.726567,77.05336700000002,978
979,U99608,Rajeev Nagar,28.724983,77.058433,979
980,U99614,Begumpur,28.721767,77.06515,980
981,U00621,Rohini Sec-21,28.7188,77.069767,981
982,U00657,Rohini Sec 20/21 More,28.715887,77.074077,982
983,U00683,Pooth Kalan,28.71425,77.0770666666667,983
984,DC3748,Brahm shakti hospital,28.712466999999997,77.08063299999998,984
985,U00763,Krishna Vihar,28.706667,77.08421700000002,985
986,DC3749,Buddh vihar,28.70415,77.08748299999998,986
987,U00831,Mangol Puri Y Block,28.7029,77.08951,987
988,U00892,Mangol Pur Khurd,28.700133,77.09433299999998,988
989,U00931,Avantika Xing,28.698466666666693,77.0970166666667,989
990,U00961,Mangolpur Kalan Village,28.6957,77.1012,990
991,U01021,Mangol Pur School (Outer Ring Road),28.6948,77.10646700000002,991
992,U01039,Rohini Depot III,28.695459999999997,77.10895,992
993,U01060,Puspanjali Enclave,28.696140000000003,77.11117,993
994,U01093,Kali Mata Mandir,28.697409999999998,77.11626,994
995,U01126,Deepali Chowk,28.69831,77.11946,995
996,U01188,Saraswati Vihar C Block,28.70025,77.12487,996
997,U01248,Madhuban Chowk Outer Ring Road,28.7015,77.12731,997
998,U01289,RU Block Power House,28.7078,77.1343,998
999,U01331,Pitampura RU Block,28.71064,77.13667,999
1000,U01354,Uttri Pitam Pura,28.715019,77.138989,1000
1001,U01358,Pitam Pura BV Block,28.716490000000004,77.13932,1001
1002,U01372,Haidarpur Water Works,28.72155,77.140383,1002
1003,U99995,PS Badli,28.72515,77.14229,1003
1004,DC5131,Jail Road Rohini Sec 18,28.72726500000001,77.143241,1004
1005,DC5129,Badli Village,28.731937,77.140125,1005
1006,DC5127,Rohini Sec 18 Block,28.735979999999998,77.13753299999998,1006
1007,DC5125,Rohini Sec 18,28.738588,77.135888,1007
1008,U02000,Qutub Minar,28.526517,77.18605,1008
1009,U02048,T B Hospital,28.5283,77.1897,1009
1010,U02090,DDA Flats Lado Sarai,28.529833,77.19211700000002,1010
1011,DC5148,PTS,28.532964,77.195504,1011
1012,DC5149,MMTC / Adhchini Village,28.535351,77.196849,1012
1013,DC5150,Adhchini Village,28.537823,77.19807,1013
1014,DC5151,Mothers International School,28.541140999999996,77.1995,1014
1015,DC5152,IIT Gate,28.543571000000004,77.20071,1015
1016,U02253,IIT Gate (Aurobindo Marg),28.54585,77.20196700000002,1016
1017,U02281,Padmani Enclave,28.5492,77.2034,1017
1018,U02315,Hauz Khas,28.553,77.2049,1018
1019,U02357,Green Park,28.558583000000002,77.206733,1019
1020,U02377,Yusuf Sarai,28.5626,77.2074,1020
1021,U02379,Safdurjung Hospital / AIIMS,28.56725,77.20773299999998,1021
1022,U02416,Kidwai Nagar,28.5757,77.2097,1022
1023,U02471,SJ Airport,28.584467,77.212267,1023
1024,U02476,S J Madrasa,28.5887,77.2127,1024
1025,U02502,Prithvi Raj Road,28.5933,77.2143,1025
1026,U02553,Prithvi Raj Road Crossing,28.5965,77.2174,1026
1027,U02554,Claridges Hotel,28.602117,77.21765,1027
1028,U02559,National Museum,28.611817,77.218283,1028
1029,U02563,National Archives,28.6147,77.2185,1029
1030,U02576,Windsor Place,28.617942,77.218662,1030
1031,DC5153,Western Court,28.623743,77.21895500000002,1031
1032,U02584,Indian Oil Bhawan,28.6286,77.2193,1032
1033,U02654,Shivaji Park,28.6387,77.22399999999998,1033
1034,U02697,Vivekanand Marg / Minto Road,28.64155,77.22615,1034
1035,U02712,PS Kamla Market,28.643083,77.226,1035
1036,U02703,Ajmeri Gate / Kamla Market,28.644083000000002,77.22405,1036
1038,U01315,Punjabi Bagh Terminal,28.667331,77.13573000000002,1038
1039,U01261,Punjabi Bagh Club,28.663517,77.13113299999998,1039
1040,U01233,ESI Hospital,28.658433000000002,77.128633,1040
1041,U01196,Rajdhani College / Raja Garden,28.654783000000002,77.125417,1041
1042,U01211,Rajouri Garden Market,28.6457,77.127,1042
1043,U01257,Mayapuri Chowk (Ring Road),28.638567,77.12988299999998,1043
1044,U01308,Naraina Vihar,28.627516999999997,77.134183,1044
1045,U01325,Naraina Village,28.618133,77.13675,1045
1046,NS0253,COD Ring Road,28.612917,77.13735,1046
1047,U01373,Barar Square,28.607383000000002,77.141767,1047
1048,U99892A,Garrison Engg.,28.60536667,77.14743333,1048
1049,U99893A,RR Line,28.60415,77.155333,1049
1050,U01628,Dhaula Kuan (Ring Road),28.599321999999997,77.162887,1050
1051,DC0013,Satya Niketan (Dhaula Kuan),28.5884,77.170233,1051
1052,U01778,Satya Niketan / Gurudwara Moti Bagh,28.584933000000003,77.172517,1052
1053,U01805,South Moti Bagh (Ring Road),28.58195,77.174283,1053
1054,U01817,South Moti Bagh,28.57800000000001,77.175,1054
1055,U01777,R. K. Puram Sec-12,28.5757,77.1724,1055
1056,U01797,Sangam Cinema,28.5736,77.1737,1056
1057,DC3668,RK Puram Sec-10,28.5702,77.173167,1057
1058,U01832,Mohan Singh Market,28.5668,77.1762,1058
1059,U01848,R K Puram Sec-1,28.5647,77.1783,1059
1060,U01852,RK Puram Sec 1,28.563000000000002,77.1783,1060
1061,U01835,R K Puram Nab,28.56125,77.1763,1061
1062,U01800,Munirka Village (T),28.5585,77.17371700000002,1062
1063,U01792,Munirka Family Planning,28.557,77.1746,1063
1064,U01847,Munirka DDA Flats,28.555517,77.17671700000002,1064
1065,U01900,ISTM,28.552767,77.181,1065
1066,U01980,IIT Hostel,28.55003300000001,77.185633,1066
1067,U02043,Jia Sarai,28.5483,77.1897,1067
1068,U02151,IIT Gate,28.546,77.197,1068
1069,U02798PB,Pushpa Bhawan,28.527866999999997,77.231317,1069
1070,DC0134,DDA Flats Kalkaji,28.528442,77.255736,1070
1071,U03132,DDA Flats Kalka Ji,28.527958,77.257446,1071
1072,U03145,DDA Market kalka Ji,28.530728999999997,77.258493,1072
1073,U03150,DDA Flats Kalka Ji,28.531871999999996,77.258961,1073
1074,U03154E,Govindpuri Ext Gali No 16,28.533575,77.259665,1074
1075,U03155,Rampuri Gali No 13,28.534824,77.26013,1075
1076,U03163,Govindpuri Gali No 5,28.537640999999997,77.261185,1076
1077,U03164,Ram Puri / Govind Puri,28.538625,77.261545,1077
1078,U03166,Govind Puri,28.539533000000002,77.261894,1078
1079,U03182,Govind Puri Metro Station,28.545116999999998,77.263917,1079
1080,U03173,Kalkaji Mandir (MaaAnandmayeeMarg),28.547766999999997,77.262833,1080
1081,U03180,Kalkaji Mandir,28.551166,77.263849,1081
1082,U03183,NSIC,28.552086,77.264157,1082
1083,U03195,Laghu Udyog Sansthan(ModiMill),28.555533,77.265167,1083
1084,U03159,SNPD,28.56073300000001,77.26061700000002,1084
1085,U03141,East of Kailash C-Block,28.561933000000003,77.258033,1085
1086,U03106,East of Kailash B-Block,28.561916999999998,77.255567,1086
1087,U03046,Garhi Gaon,28.5621,77.2512,1087
1088,U03041LN,Lajpat Nagar Crossing,28.5643,77.2501,1088
1089,U03062,PG DAV College / Sri Niwaspuri,28.5674,77.252883,1089
1090,U03074,Nehru Nagar,28.56915,77.253883,1090
1091,U03134,Ashram (Hari Nagar),28.573366999999998,77.257533,1091
1092,U02877,Golf Club / Sunder Nagar,28.601367,77.237883,1092
1093,U99849,Kaka Nagar,28.60575,77.2371,1093
1094,DC4456,Pandwala Crossing,28.558042999999998,76.974025,1094
1095,DC4772,Osho Dhyan Mandir Jhatikra Road,28.553981,76.973148,1095
1096,DC4446,Daulat Pur Crossing,28.543634,76.970812,1096
1097,DC4774,Jhatikra Village,28.522,76.966004,1097
1098,U00987,Hari Nagar Depot,28.6239,77.1017,1098
1099,U01026,DA Block Hari Nagar,28.6251,77.10686700000002,1099
1100,U01056,Hari Nagar Shaheed Pawan Sahni Chowk,28.6252,77.1108,1100
1101,U01053,DDU Hospital,28.628,77.1107,1101
1102,U01063,Beriwala Bagh,28.63145,77.111967,1102
1103,U01082,Swarg Ashram,28.631,77.1149,1103
1104,U01122,LIG Flats,28.6309,77.1196,1104
1105,DC3909,Hari Nagar (Mohan Mandir) Mayapuri,28.630683,77.124267,1105
1107,U01524,Pandav Nagar,28.650133,77.15335,1107
1108,U99983A,Telephone Exchange Karol Bagh,28.643210999999997,77.182029,1108
1109,U02310,Panchkuian Road Banwari Lal Hospital,28.64165,77.204717,1109
1110,U02306,Balmiki Mandir Marg,28.639967,77.204483,1110
1111,U02276,PS Mandir Marg,28.63758300000001,77.202967,1111
1112,U03023,Indraprastha Depot,28.6202,77.2485,1112
1113,U03015,IP Power Station / ITO Ring Road,28.624567,77.24708299999998,1113
1114,U03048,Delhi Secretariat,28.6283,77.2514,1114
1115,U03157,Rainy Well,28.6283,77.260633,1115
1116,U03293,Laxmi Nagar / Shakarpur Crossing,28.6297,77.277067,1116
1117,U03317,Shakarpur School Block,28.627433,77.27928299999998,1117
1118,U03379,Ganesh Nagar,28.621017,77.28523299999998,1118
1119,U03393,Mother Dairy,28.619117,77.286333,1119
1120,U03407,Patparganj Xing,28.6164,77.2881,1120
1121,U03431,P S Pandav Nagar,28.6147,77.2903,1121
1122,U03464,Shashi Garden Xing,28.6136,77.2941,1122
1123,U03474,Pocket-5 Mayur Vihar Ph-1,28.6133,77.2956,1123
1124,U03498,ITI Khichiripur,28.613000000000003,77.2977,1124
1125,U03539,Kotla Village,28.6132,77.30199999999998,1125
1126,U03604,Trilokpuri 13 Block,28.612817,77.30618299999998,1126
1127,U03637,Chand Cinema,28.612983000000003,77.3125,1127
1128,U03674,Super Bazar,28.613567,77.316317,1128
1129,U03706,Kalyan Puri Terminal,28.615167,77.31926700000002,1129
1130,U03745,Kondali Old,28.613051000000002,77.322989,1130
1131,U03711,Dallu Pura,28.60875,77.32005,1131
1132,U03734,Fire Station,28.605317,77.322683,1132
1133,U03766,Mayur Vihar Phase 3 Crossing,28.6018,77.32735,1133
1134,U03780,New Kondali A1 Crossing,28.602967,77.329133,1134
1135,U03802,Bharti Public School,28.606133000000003,77.333967,1135
1136,U03809,Mayur Vihar Phase III A1 Block,28.608717,77.33715,1136
1137,U03822,CRPF Camp,28.611833,77.339833,1137
1138,DC3942,Mayur Vihar Phase III Terminal / Paper Market,28.617233000000002,77.339567,1138
1139,DC5397,Bawana Sec 5 Cluster Depot,28.810202,77.075804,1139
1140,DC5450,Holambi Crossing,28.800838,77.084369,1140
1141,DC5451,Pragati Power Station Bawana,28.794235999999998,77.07373299999998,1141
1142,DC5452,Rajeev Ratan Aawas Bawana,28.784427,77.063506,1142
1143,DC5453,Ganga Toli Mandir Bawana,28.787065000000002,77.058352,1143
1144,DC5454,Bawana Sec 1 Crossing,28.793643,77.047639,1144
1145,DC4561,DSIDC Bawana Sec 2,28.803268,77.042608,1145
1146,U00420,Bawana Village,28.80175,77.039147,1146
1147,DC4562,Bawana Dispensary,28.800739,77.03695400000002,1147
1148,U99646,Bawana Village,28.799965999999998,77.035563,1148
1149,DC4564,Primary School,28.797786,77.033746,1149
1150,DC4565,Panchayat Ghar,28.797807000000002,77.031522,1150
1151,DC4566,Ishwar Colony,28.794709,77.030052,1151
1152,DC4567,Krishna Vihar,28.789662,77.02806600000002,1152
1153,DC4568,Bajit Pur Xing,28.784696000000004,77.024034,1153
1154,DC4569,Shri Krishna Gaushala,28.779613,77.02200500000002,1154
1155,DC4570,Prem Piyau,28.765949,77.016532,1155
1156,DC4571,Sultan Pur Xing,28.756297999999997,77.015464,1156
1157,DC4572,Chandpur Crossing,28.7512,77.0145,1157
1158,DC4573,SDM Court Kanjhawala,28.740506,77.00955400000002,1158
1159,U99795A,Kanjhawala Chowk,28.7376,77.008,1159
1160,U99794,Shivam Plywood,28.735440000000004,77.01226,1160
1161,U00372,Radha Swami Satsang / Rupali Enclave,28.73397700000001,77.02093599999998,1161
1162,DC3747,Shiv vihar/Bheem chowk,28.73345,77.02515,1162
1163,U99807A,Desu Office Karala,28.73262,77.02861,1163
1164,U00665,Sultanpuri Terminal,28.70345,77.075067,1164
1165,DC3545,Najafgarh Delhi Gate,28.61168300000001,76.985683,1165
1166,U00284,Jhatikara Crossing,28.584543,76.995717,1166
1167,DC3972,Rewla Taj Pur More,28.577467,76.996717,1167
1168,U00299,Chhawla School,28.5664,77.0004,1168
1169,DC4462,Chhawla Village Kangan Heri Road,28.561281,77.001954,1169
1170,DC4450,Rishal Vihar,28.553617,76.992947,1170
1171,DC4448,Kangan Heri - I,28.548293,76.988737,1171
1172,DC4445,Daulat Pur Crossing,28.543646999999996,76.970579,1172
1173,DC4771,Osho Dhyan Mandir Jhatikra Road,28.554267,76.972951,1173
1174,DC4455,Pandwala Crossing,28.558135999999998,76.973881,1174
1175,DC5258,Rewla Khanpur Depot,28.568671999999996,76.976514,1175
1176,U03742,Harsh Vihar,28.698617,77.32216700000002,1176
1177,U03661,Gagan Cinema,28.695759000000002,77.315365,1177
1178,U03673,Sunder Nagri,28.692859999999996,77.316135,1178
1179,U03731,Anand Gram,28.688212,77.31989,1179
1180,U03719,Anand Gram Kusht Ashram,28.688783,77.321617,1180
1181,DC3795,Tahir Pur,28.691467,77.32481700000002,1181
1182,U03767,DLF More,28.6931,77.3274,1182
1183,U03790,Shalimar Garden Crossing,28.6885,77.3303,1183
1184,U03773,New Seema Puri Depot Cluster,28.684844000000002,77.331517,1184
1185,U02619,Mori Gate Terminal,28.665861,77.22208499999998,1185
1186,U02162,Roop Nagar (GT Road),28.682636,77.197448,1186
1187,U02133,Gur Mandi,28.6849666666667,77.1959333333333,1187
1188,U02111,Rana Pratap Bagh,28.688886,77.192984,1188
1189,U02076,Gurudwara Nanak Pyau,28.6908,77.1918,1189
1190,U02017,State Bank Colony,28.6956,77.1878,1190
1191,U01996,Telephone Exchange,28.6975,77.1862,1191
1192,U01955,Gujranwala Town,28.6996,77.1845,1192
1193,U01926,Bara Bagh,28.7017,77.1828,1193
1194,DC4803,Nangli Puna,28.7729,77.14305,1194
1195,DC4804,Jain Mandir,28.777717,77.142033,1195
1196,DC4805,Budhpur GT Road,28.78185,77.14111700000002,1196
1197,DC4806,Bdo Office,28.79315,77.139833,1197
1198,DC4807,Alipur Village GT Road,28.796783,77.139433,1198
1199,DC4809,Palla More,28.803533,77.143833,1199
1200,DC4810,Bakhtawar Pur School,28.814633,77.161167,1200
1201,DC4811,Triveni Colony,28.81865,77.166167,1201
1202,DC4812,Bakhtawar Pur Village,28.822333,77.171717,1202
1203,DC4813,Bakhtawar Pur Primary School,28.82593300000001,77.174667,1203
1204,DC4814,Bakhtawar Pur Garhi,28.82955,77.17863299999998,1204
1205,DC4815,Akbar Pur Majra Crossing,28.832525,77.179075,1205
1206,DC4983,Palla Crossing,28.84347,77.180785,1206
1207,DC5232,Dahisara Border,28.857840000000003,77.18451,1207
1208,U00788,Manglapuri / Palam Village,28.589316666666694,77.08635,1208
1209,DC3630,Dwarka Flyover,28.58395,77.091533,1209
1210,U00809,Palam Colony Flyover,28.581483000000002,77.096017,1210
1211,DC3632,Prehlad Pur,28.57968300000001,77.101783,1211
1212,DC3633,Indian Oil Station,28.577583,77.108783,1212
1213,DC3634,IOL,28.57535,77.116967,1213
1214,DC3635,Palam Airport Bypass,28.56955,77.123533,1214
1215,U01285,Palam More,28.5682,77.1298,1215
1216,DC3638,NHW 8,28.5695,77.1326,1216
1217,U00761,APS Colony,28.574833,77.141583,1217
1218,U01460,APS Colony / Arjun Path,28.575266999999997,77.147183,1218
1219,U01502,Subroto Park (Arjun Path),28.574316999999997,77.151517,1219
1220,U01589,Shani Mandir / Vasant Village,28.57572,77.159058,1220
1221,U99601,Swami Malai Mandir,28.568467,77.164833,1221
1222,U01710,R K Puram Sec-5,28.563033,77.16825,1222
1223,U01730,R K Puram Sec-5,28.56055,77.17025,1223
1224,U01767,Vasant Vihar Depot,28.558916999999997,77.172067,1224
1225,U02486,Panchsheel Club,28.54318300000001,77.213617,1225
1226,U02536,Sadhna Enclave,28.542983000000003,77.216433,1226
1227,DC3667,North Point (Nursing Home),28.5428,77.2189,1227
1228,U02673,Swami Nagar,28.5423,77.2248,1228
1229,U02853,Masjid Moth,28.54085,77.236067,1229
1230,U02870,Savitri Cinema,28.54175,77.23855,1230
1231,U02938,OS Communications,28.542817,77.2415,1231
1232,U02964,Pumposh Enclave,28.5437,77.2438,1232
1233,U03089,Nehru Place Terminal,28.5481,77.2552,1233
1234,DC5068,Sec A 5 Crossing Narela,28.85772,77.10377,1234
1235,U99792Z,Karala Crossing,28.73144000000001,77.03198,1235
1236,U99791,Shaheed Bhagat Singh Nagar,28.72487000000001,77.02922,1236
1237,U99658,Madanpur Dabas,28.7164,77.0282,1237
1238,U99819Z,Mubarak Pur Crossing,28.712614000000002,77.028059,1238
1239,U99790,Rani Khera School / Bhagya Vihar,28.7095,77.028,1239
1240,U99813A,Rani Khera Village,28.70358,77.02789,1240
1241,DC4959,Rani Khera Depot Crossing,28.698024,77.02790300000002,1241
1242,DC4981,Rani Khera Depot 1,28.700471000000004,77.033335,1242
1243,U99868,New Delhi Railway Station Gate 2,28.64293,77.223781,1243
1244,DC3597,New Sabzi Mandi,28.7143,77.172217,1244
1245,U99882,Jahangirpuri GT Road,28.725467,77.16283299999998,1245
1246,U00305,Chhawla Village,28.561328000000003,77.002113,1246
1247,U00321,Sumesh Vihar,28.5579,77.0044,1247
1248,U00330,BSF Camp Chhawla,28.554225,77.006449,1248
1249,U00344,BSF Campus Chhawla,28.547717,77.009283,1249
1250,DC3960,Toll Tax Post,28.54325,77.01316700000002,1250
1251,U00369,Bamnoli Power Station,28.542016999999998,77.01853299999998,1251
1252,U00392BM,Bamnoli Crossing,28.539067,77.030783,1252
1253,DC3962,Bijwasan Railway Station,28.535651,77.043649,1253
1254,DC3961,Palam Vihar Crossing,28.532617,77.052983,1254
1255,DC3963,Shri Golok Dham Bijwasan School,28.533771,77.059297,1255
1256,DC3964,Palam Vihar More,28.533183,77.06043299999997,1256
1257,DC3965,Kapashera Village Bijwasan Road,28.52773,77.076142,1257
1258,DC3966,Kapashera More,28.530683000000003,77.086417,1258
1259,U99912A,Samalkha Crossing,28.538035999999998,77.09342,1259
1260,DC4187,The Uppal Hotel,28.536496000000003,77.101516,1260
1261,U99837,Shiv Murti (NH-8),28.535983,77.111967,1261
1262,U01113,Rangpuri,28.543991,77.118187,1262
1263,U01178,Mahipalpur Village Ext (NH-8),28.548083000000002,77.12526700000002,1263
1264,U01282,Shankar Vihar / National Highway 8,28.566633000000003,77.13395,1264
1265,U01387,APS Colony/ Jharera Gaon,28.579967,77.144817,1265
1266,U01510F,Air Force HQ / Subroto Park,28.584133,77.146033,1266
1267,U01541,Maharana Pratap Chowk,28.588067,77.1509,1267
1268,U01510A,RR Hospital,28.590066999999998,77.155817,1268
1269,DC3843,Air Force Officers Flats Dhaula Kuan,28.600966999999997,77.167867,1269
1270,U02237BP,Budha Jayanti Park,28.61538,77.17517,1270
1271,U02237RN,R Block Rajinder Nagar,28.62339,77.18004,1271
1272,NS0391,Ridge Road,28.632683,77.18875,1272
1273,DC3844,CPRTI/ Delhi Jal Board,28.63715,77.1924,1273
1274,U02237RS,Ravinder Rangshala,28.6409,77.19505,1274
1275,DC3845,Karol Bagh Gurgaon Stand,28.643833,77.1969,1275
1276,U02647,Kamla Market / Ajmeri Gate,28.6448,77.223733,1276
1277,U02714,PS Kamla Market,28.6429,77.2267,1277
1278,U01827,Rajender Nagar,28.641,77.1759,1278
1279,U01864,Shankar Road,28.6391,77.179017,1279
1280,U01944,New Rajender Nagar,28.6366,77.183683,1280
1281,U02064,Upper Ridge Road,28.632183,77.19031700000002,1281
1282,U02145,Talkatora Stadium,28.6263,77.1965,1282
1283,U02187,RML Hospital,28.62505,77.198717,1283
1284,U02266,Talkatora Road,28.6226,77.2028,1284
1285,U02323,Kendriya Terminal / Gurudwara Rakab Gunj,28.6212,77.2053,1285
1286,U02346,Kendriya Terminal (Pt. Pant Marg),28.62155,77.2062166666667,1286
1287,U02354,NDPO,28.6256,77.2064,1287
1288,U99767,Gurudwara Bangla Sahib,28.6284,77.2097,1288
1289,DC0004,Hanuman Mandir / Shivaji Stadium,28.63035,77.21405,1289
1290,U02645,Statesman House,28.6306,77.2238,1290
1291,U02683,Barakhamba Metro Station,28.6297,77.2252,1291
1292,U02753,Modern School,28.6278,77.2285,1292
1293,U02832,Mandi House,28.625767,77.23433299999998,1293
1294,U02892,Tilak Bridge,28.6255,77.2397,1294
1295,U02962,ITO,28.628183,77.24515,1295
1296,U03286,Laxmi Nagar Metro Station,28.630967,77.277767,1296
1297,U03353,Shakarpur,28.6338,77.28215,1297
1298,U03382,Shakarpur Crossing,28.635666999999998,77.28478299999998,1298
1299,U03395,Nirman Vihar Metro Station,28.637025,77.287308,1299
1300,U03447,Sawarthya Vihar,28.639416999999998,77.29195,1300
1301,U03482,New Rajdhani Enclave,28.642483000000002,77.29635,1301
1302,U03495,KarKarDooma Crossing,28.643217,77.297317,1302
1303,U03594,Hassanpur Depot,28.63618300000001,77.307233,1303
1304,U03621,Hassanpur Village,28.6363,77.3103,1304
1305,U03651,TELCO Gazipur,28.6409,77.3154,1305
1306,U03667,Gazipur Depot,28.64195,77.31581700000002,1306
1307,U03104,Air Force Station,28.511683,77.25546700000002,1307
1308,U03136,Air Force Station,28.511733000000003,77.257867,1308
1309,U03192,Tughlaqabad Village,28.509283,77.265,1309
1310,U03224,Kaya Maya Hospital,28.50825,77.269017,1310
1311,U03287,MB Road,28.5058,77.27628299999998,1311
1312,DC3901,Bawana Village,28.800310999999997,77.035267,1312
1313,U00386,Bawana Depot,28.803666999999997,77.02851700000002,1313
1314,DC3903,PS Bawana,28.806441999999997,77.022952,1314
1315,U00359,Dariyapur Kalan School Bawana,28.808878999999997,77.01478900000002,1315
1316,DC4894,Bajit Pur Crossing,28.811629999999997,77.01084399999998,1316
1317,DC5040,Nangal Thakran,28.808899,77.007976,1317
1318,DC5041,Bajitpur Village,28.808367999999998,77.003341,1318
1319,DC5042,Bajitpur Mandir,28.803187,76.99787099999998,1319
1320,DC5043,Katewara Village,28.805048,76.976832,1320
1321,DC5044,Katewara Colony,28.805794,76.969799,1321
1322,DC5045,Katewara School,28.805856,76.96633,1322
1323,DC4902,Qutub Garh Village,28.80092,76.96198000000003,1323
1324,DC4903,Jat Khor Crossing,28.790469,76.962747,1324
1325,DC4685,Divya Dham Ashram,28.788221999999998,76.962731,1325
1326,DC4687,Punjab Khor Village,28.77775,76.961383,1326
1327,DC4688,Punjab Khor Village,28.7734,76.9621,1327
1328,DC4689,Balaji Enclave,28.767583000000002,76.964667,1328
1329,DC4691,Tatesar Village,28.755728,76.968795,1329
1330,DC4692,Jonti Village,28.75315,76.9724,1330
1331,DC4693,Jonti Crossing,28.74598300000001,76.97845,1331
1332,DC5215,Jonti Village,28.74914,76.968765,1332
1333,DC5217,Jonti Enclave,28.743093,76.965878,1333
1334,DC5213,Garhi Randhala,28.727219,76.96599499999998,1334
1335,DC5211,Nizampur Village,28.71777800000001,76.961366,1335
1336,DC5209,Vanasthali Public School,28.714765000000003,76.969734,1336
1337,DC5207,Agrasen Vriddh Ashram,28.711814,76.9764,1337
1338,DC5205,Savda Village,28.710492,76.98040300000002,1338
1339,DC5203,Savda JJ Colony,28.704591999999998,76.98865500000002,1339
1340,U00289,Ghevra Village,28.696167,76.99784,1340
1341,U00273,FCI Ghevra,28.692391999999998,76.9942,1341
1342,U00275,Ghevra Crossing / Ghevra Metro Station,28.685429,76.99508399999998,1342
1343,U00301,Hiran Kudna Crossing,28.684917,77.001267,1343
1344,U00362,Mile Stone / Shiv Shankar Dharam Kanta,28.684,77.01165,1344
1345,U00379,Mundka Industrial Area / Mundka School,28.68348300000001,77.018217,1345
1346,U00393,Mundka Village (Metro Station),28.682583,77.0299,1346
1347,U00419,Mundka Village Xing,28.6825,77.035733,1347
1348,U00446,Swarn Park,28.6824,77.0408,1348
1349,U00481,Rajdhani Park,28.6823,77.0487,1349
1350,U00511,Qamruddin Nagar Terminal,28.682297,77.054221,1350
1351,DC3549,Mitraon Village,28.608589,76.94541600000002,1351
1352,U00298,Jai Vihar,28.63158300000001,77.000417,1352
1353,U00306,AirForce Station (BaniCamp),28.63355,77.00245,1353
1354,U00336,Baprola School,28.63845,77.00785,1354
1355,U00350,Baprola Village,28.640883000000002,77.011483,1355
1356,U00364,BakkarWala Crossing,28.6439,77.0167,1356
1357,U00374,Chanchal Park,28.6463,77.021333,1357
1358,DC3872,Kotla Vihar Phase II,28.648417,77.02516700000002,1358
1359,DC3877,TilangPur Kotla,28.649733,77.027233,1359
1360,U99750A,BrahmPuri Colony,28.652383,77.0325,1360
1361,DC3874,PS Ranhola,28.653616999999997,77.035433,1361
1362,DC3875,Ranhola II,28.654767,77.037983,1362
1363,U00444,Ranhola Village,28.6561,77.04065,1363
1364,U00479,Ranhola Extension,28.658483,77.043817,1364
1365,U00500,Rishal Garden,28.6619,77.048783,1365
1366,U00510,Nilothi Crossing,28.664533000000002,77.052633,1366
1367,U00524,ShivRam Park,28.667833,77.055183,1367
1368,U00534,Narain DharamKanta,28.670883,77.05775,1368
1369,U00545,Aman Puri,28.673183,77.0597,1369
1370,U00565,Kamruddin Nagar,28.6747,77.0611,1370
1371,DC3876,Nangloi Post Office,28.679883,77.066,1371
1372,U00595,Nangloi,28.681617,77.06725,1372
1373,U00615,Sultan Puri Crossing,28.682316999999998,77.068783,1373
1374,U00647A,Surajmal Stadium,28.682083000000002,77.07300000000002,1374
1375,U00716,Jwala Puri / Nangloi Depot,28.681417,77.0791,1375
1376,U00768,Inder Enclave,28.680933000000003,77.08421700000002,1376
1377,U00828,Udyog Nagar,28.6803,77.0893,1377
1378,U00881,Peera Garhi Metro Station,28.68,77.0929,1378
1379,U00897,Peera Garhi Chowk,28.6803,77.0944,1379
1380,U00905,B-Block Mangolpuri,28.6881,77.0951,1380
1381,U00847,Q-Block Mangolpuri,28.6877,77.0913,1381
1382,DC4472,Mundhela Khurd Village,28.617265000000003,76.893125,1382
1383,DC4473,Mundhela Khurd School,28.616096999999996,76.89664599999998,1383
1384,DC4470,Mundhela School II,28.614072999999998,76.89572700000002,1384
1385,DC4468,Mundhela Kalan Village,28.609679999999997,76.89358100000003,1385
1386,DC4465,Mundhela Kalan School,28.605246,76.89375600000002,1386
1387,U99773,Mundhela Crossing,28.59765,76.895133,1387
1388,U99774,Mata Din Kaur Public School,28.5977,76.8988,1388
1389,DC4011,Ujwa Gaon,28.568766999999998,76.906767,1389
1390,DC4012,Dariyapur Village / Malikpur Crossing,28.552433,76.907767,1390
1391,DC4430,Jhul-Jhuli Check Post / Ghumanhera Crossing,28.535481,76.90975300000002,1391
1392,DC4428,Ghuman Hera DTC Depot,28.534140999999998,76.915295,1392
1393,DC4792,Ghuman Hera Village Main Road,28.532369,76.919143,1393
1394,DC5498,khera Village,28.59923400000001,76.967138,1394
1395,DC4610,Ber Sarai,28.550617,77.181617,1395
1396,DC4609,Ber Sarai,28.549483000000002,77.180617,1396
1397,DC4608,School Of Physical Science,28.546433,77.17943299999997,1397
1398,DC4607,FAI,28.543633000000003,77.1801,1398
1399,DC4606,Sanskrit Vidyapeeth,28.541867,77.18305,1399
1400,DC4605,Katwaria Sarai,28.540483,77.18561700000002,1400
1401,DC4604,Qutub Hotel,28.5391,77.19,1401
1402,DC4603,NCERT,28.537767,77.193833,1402
1403,U02505,Safdurjung Terminal,28.579581,77.214163,1403
1404,U02483,Vikas Sadan,28.5766,77.2134,1404
1405,U02473,AIIMS Ring Road,28.56915,77.21243299999998,1405
1406,U02556,South Extension,28.5689,77.2181,1406
1407,U02600,South Extension,28.5688,77.2206,1407
1408,U03186,Maharani Bagh / Ashram,28.576633,77.26445,1408
1409,U03201,Bala Sahib Gurudwara,28.5812,77.266,1409
1410,U03139,Sarai Kale Khan ISBT,28.587117,77.259117,1410
1411,U03139HT,Sarai Kale Khan ISBT,28.590333,77.2581,1411
1412,U03221,Nizamuddin Road Bridge / CPWD Office,28.604416999999998,77.269467,1412
1413,DC3669,Khel Gaon CWG Village,28.606621,77.274337,1413
1414,DC0126,Akshardham Temple / Pusta Crossing,28.612616999999997,77.28196700000002,1414
1415,U03375,Samaspur Jagir Village / Pandav Nagar,28.615381,77.284409,1415
1416,DC0128,Sanjay Lake Trilokpuri,28.62015,77.2955,1416
1417,DC0129,East Vinod Nagar Depot,28.6219076,77.3000612,1417
1418,DC0130,Khichdipur,28.6258,77.31205,1418
1419,DC0131,Gazipur NH-24 Crossing,28.630367,77.316333,1419
1420,U03662,Gazipur Village,28.63225,77.31568299999998,1420
1422,U00371,Mundka Main Rohtak Road School,28.683033,77.024517,1422
1423,U00593,Lokesh Cinema Nangloi,28.6822,77.06003299999998,1423
1424,U99642,Nangloi Metro Station,28.682283,77.064429,1424
1425,U00919,Peera Garhi Chowk,28.67953300000001,77.09575,1425
1426,U00984,Paschim Vihar Super Bazar (West Metro Station),28.6788666666667,77.10075,1426
1427,U01020,Multan Nagar,28.6783,77.105783,1427
1428,U01035,New Multan Nagar,28.67755,77.1116,1428
1429,U01084,Ordinance Depot,28.677133,77.11501700000002,1429
1430,U01121,Madipur JJ Colony Metro Station,28.676383,77.1205,1430
1431,U01168,Madipur Village,28.675967,77.12383299999998,1431
1432,U01225,SPM College,28.675417,77.128033,1432
1433,U01264,Shivaji Park,28.674967,77.131617,1433
1434,U01281,Agarsen Hospital,28.6745333333333,77.1348166666667,1434
1435,U01371,Punjabi Bagh Terminal,28.675466999999998,77.1404,1435
1436,U01402,Shakurpur Shiv Mandir,28.680273,77.142183,1436
1437,U01540,Wazirpur Depot / Subhash Place Depot,28.69485,77.15485,1437
1438,U01574,Prem Bari Pull,28.700266999999997,77.158283,1438
1439,U01610,Shalimar Bagh,28.701283,77.161967,1439
1440,U01655,Ashok Vihar Xing,28.7021,77.16435,1440
1441,U01720,Shalimar Bagh,28.703770000000002,77.169044,1441
1442,U01851,Azadpur Terminal,28.7072,77.1783,1442
1443,U99850,High Court,28.6093,77.23845,1443
1444,U02826,Art Gallery,28.61035,77.233517,1444
1445,U02759,Baroda House,28.617221,77.228557,1445
1446,U02696,Bhartiya Vidya Bhawan,28.6219,77.2258,1446
1447,U10001,Max Muller Bhawan,28.6232,77.2251,1447
1448,U02626,Scindia House,28.6287,77.2219,1448
1449,U02514,Shivaji Stadium Terminal,28.63308300000001,77.21545,1449
1451,U01808,East Patel Nagar,28.6404,77.1744,1451
1452,U01811,NPL Colony,28.63725,77.17465,1452
1453,U01787,R-Block Rajendra Nagar,28.6328,77.173,1453
1454,U01762,Janak Vihar,28.6312,77.1712,1454
1455,U01692,Pusa Quarters,28.630033,77.166983,1455
1456,U01620,NASC Dasghara,28.6254,77.1622,1456
1457,U01595,Todapur Village,28.6228,77.1592,1457
1458,U01519,MonitoringandReceiving Station,28.6262,77.1534,1458
1459,U01490,Inderpuri A-Block,28.6287,77.1511,1459
1460,U01469,Inder Puri JJ Colony,28.6336,77.1479,1460
1461,U01456,Inder Puri (Krishi Kunj),28.6372,77.1466,1461
1462,U01420,Loha Mandi,28.6395,77.14393299999998,1462
1463,U01347,Payal Cinema,28.6309,77.1383,1463
1464,DC3721,Naraina Vihar / Indra Market,28.626533000000002,77.134783,1464
1465,U01230,Mayapuri Depot,28.63693300000001,77.1289,1465
1466,U01216,Government Press,28.634183,77.127517,1466
1467,U01165,Metal Forging,28.62945,77.12343299999998,1467
1468,DC3910,BE Block Hari Nagar/ESI Dispensary,28.6274,77.12168299999998,1468
1469,U01128,PS Mayapuri,28.625217,77.119867,1469
1470,NS0600,Bobby Soap,28.6238,77.1188,1470
1471,U01097,Gulab House,28.62238300000001,77.117417,1471
1472,U01068,Zunk Market,28.618116999999998,77.112183,1472
1473,DC3915,Maya Enclave,28.616667,77.110233,1473
1474,U00906,Desu Colony Janak Puri,28.609871000000002,77.095047,1474
1475,U00852,Janak Cinema,28.610881,77.092159,1475
1476,DC4708,Raghu Nagar (Janak Puri),28.611729999999998,77.090236,1476
1477,DC4709,Dabri Crossing (Pankha Road),28.613715999999997,77.085675,1477
1478,U00733,C-2 Janak Puri,28.615740000000002,77.081582,1478
1479,U00694,C-1 Janak Puri,28.617125,77.07861899999997,1479
1480,U02565,Peeli Kothi,28.6624,77.2181,1480
1481,U02479,Tees Hazari Animal Hospital Mori Gate,28.6644,77.215233,1481
1482,U02397,Azad Market,28.6643,77.2081,1482
1483,U01283,Agarsen Hospital,28.674325,77.13388499999998,1483
1484,U01263,Shivaji Park,28.674683,77.131433,1484
1485,U01222,SPM College,28.6751,77.1281,1485
1486,U01183,Madipur Village,28.67555,77.12518299999998,1486
1487,U01117,Madipur JJ Colony Metro Station,28.676398,77.118204,1487
1488,U01085,Ordinance Depot,28.6768,77.1148,1488
1489,DC3659,Shiva Enclave/ New Multan Nagar,28.6772,77.111767,1489
1490,U01018,Multan Nagar,28.678083,77.105467,1490
1491,U00981,Paschim Vihar Super Bazar (West Metro Station),28.6787166666667,77.1005,1491
1492,DC3660,Peeragarhi Chowk,28.67915,77.096067,1492
1493,U00854,Peera Garhi Metro Station,28.679667,77.092833,1493
1494,U00830,Udyog Nagar,28.67995,77.0895,1494
1495,U00772,Inder Enclave,28.680517,77.08408299999998,1495
1496,U00708,Jwala Puri / Nangloi Depot,28.6812,77.078917,1496
1497,U00677,Surajmal Stadium,28.68178300000001,77.072983,1497
1498,U00614,Sultanpuri Crossing,28.682,77.069317,1498
1499,U00592,Nangloi Metro Station,28.682006,77.064933,1499
1500,U00576,Nangloi JJ Colony Lokesh Cinema,28.682084999999997,77.058786,1500
1501,DC3711,Qamruddin Nagar Terminal,28.68199000000001,77.05391999999998,1501
1502,U99951,Lodhi Colony,28.584867,77.224367,1502
1503,U02657,18-Block Lodhi Colony,28.58745,77.22405,1503
1504,U99897,Lodi Colony Corner,28.5908,77.225,1504
1505,DC0093,JLN Stadium / Sunehri Pulla Depot,28.591939,77.232191,1505
1506,U02857,Ishpat Bhawan,28.592516999999997,77.2365,1506
1507,U02933,CGO Complex,28.586133,77.241067,1507
1508,U99932,Pant Nagar,28.583416999999997,77.24046700000002,1508
1509,U02880,Defence Colony (Lajpat Nagar Mtr Stn),28.573217,77.237783,1509
1510,U02848,MCKR Hospital,28.5691,77.2354,1510
1511,U02817,Central School,28.562817,77.2328,1511
1512,U02825,Central School (KV),28.5598,77.2336,1512
1513,U02866,Lady Shri Ram College,28.559,77.2373,1513
1514,U02949,Kailash Colony,28.554483,77.2432,1514
1515,U02997,Sant Nagar,28.552516999999998,77.2462,1515
1516,U03029,Nehru Place,28.5486,77.2492,1516
1517,U03110,Nehru Place Terminal,28.548617,77.2567,1517
1518,U03165,Govind Puri,28.538691999999998,77.261798,1518
1519,DC3693,Govindpuri Gali No 5,28.537553999999997,77.261339,1519
1520,U03156,Ram Puri Gali No 13,28.5346,77.2602,1520
1521,U03154,Govindpuri Extn Gali No. 16,28.5329,77.2596,1521
1522,U03144,DDA Flats Kalkaji,28.531895000000002,77.259197,1522
1523,U03131,DDA Market Kalkaji,28.529982,77.25850600000003,1523
1524,U03135,DDA Flats KalkaJi,28.52831500000001,77.257817,1524
1525,U03114,Tara Apartment,28.5241,77.2562,1525
1526,U03084,Guru Ravi Das Ashram / Tughlaqabad Extension,28.51945,77.254483,1526
1527,U03070,Jamia Hamdard Library,28.517133,77.25366700000002,1527
1528,U03059,Majeedia Hospital,28.514916999999997,77.25281700000002,1528
1529,U03036,Hamdard Nagar / Sangam Vihar,28.511838,77.249778,1529
1530,DC4579,Karampura Terminal,28.660016,77.144475,1530
1531,U01424,Moti Nagar,28.658615,77.144108,1531
1532,U01388,Moti Nagar Market,28.6568,77.140833,1532
1533,U01344,Kirti Nagar,28.655,77.1376,1533
1534,U01271,Basai Darapur / Ramesh Nagar,28.6528,77.1324,1534
1535,U01240,Bali Nagar,28.6519,77.1289,1535
1536,U01220,Raja Garden,28.650783,77.1262,1536
1537,U03944,Rajouri Garden,28.648821,77.122615,1537
1538,U01092,Tagore Garden,28.644116999999998,77.113683,1538
1539,U01076,Tagore Garden Metro Station / Tatarpur,28.6441,77.1136,1539
1540,U01038,Subhash Nagar Crossing / Mukherji Park,28.641920000000002,77.108859,1540
1541,U01013,Meenakshi Garden,28.639983,77.10435,1541
1542,U00976,Sant Pura Tilak Nagar,28.638567,77.100583,1542
1543,U00933,Tilak Nagar Jail Road,28.6352,77.0971,1543
1544,U00955,Fateh Nagar,28.6312,77.09885,1544
1545,U00968,G Block Hari Nagar,28.628,77.100233,1545
1546,U00986,Hari Nagar Depot,28.6245,77.1018,1546
1549,U01766,Officer Enclave S.P Marg,28.5972,77.1714,1549
1550,U01815,Bapu Dham,28.5992,77.1753,1550
1551,U01845,Railway Colony (Sardar Paltel Marg),28.600683,77.17805,1551
1552,U01939,Bhartiya Sadhu Samaj,28.6038,77.184,1552
1553,U02031,Palika Kutumb,28.6075,77.1887,1553
1554,U02072,11 Murti,28.61105,77.1907,1554
1555,U02123,Talkatora Stadium Garden,28.621667,77.19453299999998,1555
1556,U02419,Gurudwara Bangla Sahib,28.625366999999997,77.209583,1556
1557,U99913,YMCA / Palika Kendra,28.626357000000002,77.212675,1557
1558,U02539,Palika Kendra,28.62875,77.21646700000002,1558
1560,U99914,ISBT Kashmere Gate,28.666867,77.22936700000002,1560
1561,U02627,Mori Gate Terminal,28.666217,77.221928,1561
1562,U03057,Majeedia Hospital,28.515016999999997,77.252617,1562
1563,U03067,Jamia Hamdard Library,28.5172,77.2534,1563
1564,U03081,Guru Ravi Das Ashram / Tughlaqabad Extension,28.519567,77.2543,1564
1565,U03107,Tara Apartment,28.524110999999998,77.25596,1565
1566,U03161,Tughlaqabad Extension,28.5256,77.26100000000002,1566
1567,U03211,DDA Kalkaji Extension,28.526999999999997,77.267,1567
1568,DC3781,CRPF Camp Okhla Phase 1,28.528783,77.270333,1568
1569,U03217,C-Lal Chowk,28.5345,77.2683,1569
1570,U03203,Kalkaji Depot,28.539467,77.266233,1570
1571,DC0035,Sunehari Pulla Depot / Jawahar Lal Nehru Stadium Terminal,28.591283,77.2333,1571
1572,U99852A,Unani Hospital / Okhla Ext Thokar 3,28.558951,77.296058,1572
1573,DC3683,Nai Basti,28.561466999999997,77.294667,1573
1574,DC4463,Okhla Village (Temporary),28.562333000000002,77.29185,1574
1575,DC4464,Batla House (Temporary),28.562085,77.285799,1575
1576,U03367,Ansari Health Care,28.560917,77.281183,1576
1577,U03333,Jamiya Millia College,28.5609,77.2798,1577
1578,U03282,Holy Family Hospital,28.56095,77.275467,1578
1579,U03257,Bharat Nagar Crossing,28.5619,77.2723,1579
1580,U03238,Bharat Nagar,28.5666,77.269583,1580
1583,U02360,GTB Nagar,28.69835,77.2057,1583
1584,U02066,Kalyan Vihar Terminal,28.693527000000003,77.199123,1584
1585,U02719,Old Delhi Railway Station,28.660302,77.227985,1585
1586,DC4968,Singhola Crossing,28.840691999999997,77.127563,1586
1587,DC5080,Singhola Village GT Road,28.844749,77.126832,1587
1588,DC5081,Singhu Village Crossing,28.85455,77.12487,1588
1589,DC5077,Singhu Border GT Road,28.85663,77.12451999999998,1589
1590,DC5073,Gurudwara Nanak Nirankari Dera Sant Baba Resham Singh Ji,28.85732,77.10844,1590
1591,DC5071,Radha Swami Satsang Narela,28.85734,77.10587,1591
1592,DC5069,Sec A 5 Crossing Narela,28.857809999999997,77.10332,1592
1593,DC5067,Police Colony Narela,28.86122,77.10112,1593
1594,DC5065,Sec A 5 and 8 Narela Desu Colony,28.8644,77.09867,1594
1595,DC5063,Kanya Gurukul Narela,28.86122,77.09569,1595
1596,DC4973,A-7 Narela / Harish Chandra Hospital,28.838325,77.102118,1596
1597,DC5012,Bankner Crossing,28.850662,77.087307,1597
1598,DC5015,New Basti Bankner,28.851291999999997,77.080299,1598
1599,DC5016,Bankner Village,28.850763,77.07721,1599
1600,DC5019,Sarvodaya Vidyalaya Bankner,28.851133,77.073126,1600
1601,DC5021,Lampur School,28.85183,77.06760899999998,1601
1602,DC5022,Lampur Village,28.852384000000004,77.06491899999997,1602
1603,DC5025,Lampur Border,28.856693,77.052374,1603
1604,U03683,Maharaj Pur Check Post,28.643266999999998,77.316583,1604
1605,U03676,Gazipur Depot,28.64175,77.31603299999998,1605
1606,U03623,Hasanpur Village,28.636133,77.310567,1606
1607,U03587,Hasanpur Depot,28.635993,77.306815,1607
1608,U03469,JagatpuriF-Block,28.648333,77.294949,1608
1609,U03459,Jagatpuri A Block,28.65185,77.29285,1609
1610,U03451,Radheypuri,28.655,77.2919,1610
1611,U03443,Arjun Nagar,28.655933,77.29141700000002,1611
1612,U03412,East Krishna Nagar,28.659883,77.28835,1612
1613,U03392,Swaran Cinema,28.662716999999997,77.2863,1613
1614,U03376,East Azad Nagar,28.666617,77.2832,1614
1615,U03343,Jharkhandi,28.6678,77.282,1615
1616,U03337,Kanti Nagar Extension,28.6708,77.2806,1616
1617,U02655,IP College,28.680159999999997,77.22345,1617
1618,U02299,Dhaka Village,28.706538000000002,77.20454000000002,1618
1619,U02296,Radio Colony,28.712,77.2042666666667,1619
1620,U02294,Nirankari Colony,28.7148,77.204,1620
1621,U02215,CV Raman ITI,28.720833333333307,77.20005,1621
1622,U02158,Nirankari Sarovar Burari Xing,28.7271,77.1978,1622
1623,U02168,Burari Transport Authourity,28.732241,77.198077,1623
1624,U02159,Jharoda Dairy Xing,28.735,77.1973,1624
1625,DC3723,Sant Nagar Main Market,28.741983,77.1978,1625
1626,U02164,Chetan Bihari Mandir Sant Nagar,28.7447,77.19800000000002,1626
1627,U02183,Sarvodhya Vidhyalay Burari,28.749000000000002,77.1985,1627
1628,U02193,Burari Village,28.754,77.1988,1628
1629,DC0060,Ekta Garden- Harijan Basti,28.7563,77.1971,1629
1631,U02077,Laxmi Vihar,28.7600333333333,77.1910166666667,1631
1632,U02029,Kaushik Enclave,28.761066999999997,77.18861700000002,1632
1633,U01938,Amrit Vihar,28.7643,77.1838,1633
1634,DC3797,Natthupura,28.768866999999997,77.18073299999998,1634
1635,DC4361,Ibrahim Pur More,28.775565000000004,77.179417,1635
1636,DC4363,Keshav Nagar Mukti Ashram,28.779128999999998,77.179635,1636
1637,U03436,Okhla Village,28.563422999999997,77.291309,1637
1638,U03409,Batla House,28.562316999999997,77.2861,1638
1639,U02560,Marina,28.6367,77.2183,1639
1640,U02570,New Delhi Railway Station Gate 1,28.6415,77.218517,1640
1641,U02489,Dispensary Paharganj,28.6449,77.2135,1641
1642,U02400,Police Station Paharganj,28.646001000000002,77.20809399999997,1642
1643,U02300,Jhandewalan,28.646833,77.204083,1643
1644,U02241,Karol Bagh Terminal,28.648000000000003,77.2009,1644
1645,U02207,Faiz Road,28.648266999999997,77.199017,1645
1646,U01462,ESI Dispensary/CGHS Dispensary,28.66058300000001,77.147367,1646
1647,DC5017,Bankner Village,28.850842,77.07680500000002,1647
1648,DC5014,New Basti Bankner,28.851418,77.080363,1648
1649,DC5013,Bankner Crossing,28.850725,77.087612,1649
1650,DC5007,Babu Jag Jeevan Ram Colony,28.832968,77.093401,1650
1651,DC5005,Bhor Garh,28.829124,77.094652,1651
1652,DC5003,DSIDC Narela,28.821359,77.100732,1652
1653,DC5001,Narela ITI / Narela Depot,28.820309,77.101315,1653
1654,DC4999,Shahpur Garhi,28.817344,77.1028,1654
1655,U00566,Madhu Vihar,28.599883000000002,77.0614,1655
1656,U00585,Dwarka Sec 2-6,28.597267,77.0654,1656
1657,U00613,J M International School,28.595933000000002,77.06921700000002,1657
1658,U00719,Palam Gaon,28.587066999999998,77.08655,1658
1659,DC3631,Dwarka Flyover Palam Village,28.58391330000001,77.09157859999998,1659
1660,U01096A,More Lines,28.583167,77.116567,1660
1661,DC3839,Blood Bank,28.58705,77.118483,1661
1662,DC3842,Kendriya Vidhyalaya,28.58943,77.11972,1662
1663,U01142,Geeta Ashram,28.5922,77.1211,1663
1664,U01158,Sadar Bazar,28.5954,77.1227,1664
1665,DC3663,Chhawni Hospital,28.599133000000002,77.125683,1665
1666,U01239,Kabul Line,28.5977,77.1292,1666
1667,U01296,Shastri Bazar,28.5966,77.1347,1667
1668,DC3664,Sri Nagesh Garden,28.596667,77.140783,1668
1669,U01442,St. Martin School,28.596667,77.1454,1669
1670,U02146,Dr. RML Hospital,28.6226,77.1966,1670
1671,U02165,RML Hospital,28.624508000000002,77.197924,1671
1672,U02457,Patel Chowk,28.6244,77.2112,1672
1673,DC3704,Krishi Bhawan,28.617466999999998,77.213083,1673
1674,DC4131,Le Meridian Hotel,28.619333,77.2176,1674
1675,U02597,Firoz Shah Road,28.6208,77.2206,1675
1676,U02711,Kasturba Gandhi Crossing,28.6234,77.2266,1676
1677,U02967,Delhi Gate / Ambedkar Stadium Terminal,28.639867,77.2437,1677
1678,U03010,Indira Gandhi Stadium,28.6328,77.2472,1678
1679,U03018,ITO Ring Road,28.629566999999998,77.247833,1679
1680,DC4203,Delhi Sachivalaya (Raj Ghat Power House),28.637717,77.25268299999998,1680
1681,DC4779,Shikar Pur Village,28.529965999999998,76.95514,1681
1682,DC4781,Sarvodya School Daulat Pur,28.543816999999997,76.963483,1682
1683,DC4443,Shikar Pur Crossing,28.545596999999997,76.965275,1683
1684,U02305,Kendriya Terminal (Church Road),28.617513,77.203683,1684
1685,U02345,Gurudwara Rakab Ganj,28.6185,77.206,1685
1687,U01510,RR Hospital / Maharana Pratap Chowk,28.59015,77.15675,1687
1688,U01510AF,Air Force HQ / Subroto Park,28.583116999999998,77.145967,1688
1689,U01385,APS Colony/ Jharera Gaon,28.579433,77.145,1689
1690,U01288,Shankar Vihar/ National Highway 8,28.566367,77.134283,1690
1691,U99910,Mahipal Pur Crossing,28.54576500000001,77.12325,1691
1692,U01114,Rangpuri,28.541999999999998,77.11828299999998,1692
1693,U01071,Shiv Murti,28.53561,77.112429,1693
1694,U00954,Rajokari Crossing,28.5221655777015,77.09864265467749,1694
1695,U99827,Shiv Murti / Dwarka More,28.534882,77.10835300000002,1695
1696,U99828,Samalkha Crossing,28.53745,77.0922,1696
1697,U99829,Samalkha Village,28.53443900000001,77.090519,1697
1698,U99727,Kapashera Crossing,28.528866999999998,77.08675,1698
1699,U00757,Kapashera Village,28.5235,77.08325,1699
1700,U00738,Kapashera Border,28.522753,77.08285500000002,1700
1701,U04003A,Nehru Place Terminal,28.548512,77.25715699999998,1701
1702,U03034,Nehru Place,28.54755,77.249444,1702
1703,U02999,Sant Nagar,28.552366999999997,77.246167,1703
1704,U02940,Kailash Colony,28.5561,77.2411,1704
1705,U02863,Lady Shri Ram College,28.5588,77.2371,1705
1706,U02827,Central School (KV),28.5597,77.2335,1706
1707,U02792,Central School,28.5602017,77.2307834,1707
1708,U02774,Andrews Ganj,28.565966999999997,77.22965,1708
1709,U02596,South Extension,28.568367,77.22315,1709
1710,U02567,South Extn Kotla Petrol Pump,28.568766999999998,77.216767,1710
1711,U02487,AIIMS,28.56898300000001,77.213433,1711
1712,U02309,SJ Hospital,28.569483,77.20451700000002,1712
1713,U02131,Nauroji Nagar,28.569294,77.19505699999998,1713
1714,U01947,Hyatt Hotel (GAIL),28.5698,77.186,1714
1715,U01924,RK Puram Sec-12,28.5705,77.1826,1715
1716,U01871,RK Puram Sec-12,28.5723,77.1798,1716
1717,U01844,RK Puram Sec-12,28.5752,77.1778,1717
1718,U01802,South Moti Bagh (Ring Road),28.581667,77.174083,1718
1719,U01776,Moti Bagh Gurudawara Nanakpura,28.584933000000003,77.172167,1719
1720,U01750,Satya Niketan,28.587833000000003,77.170333,1720
1721,U01716,ARSD College (Dhaula Kuan),28.59038300000001,77.168467,1721
1722,U01671,Dhaula Kuan,28.598667,77.16315,1722
1723,U01489,RR Line,28.60385,77.155433,1723
1724,U99859,Garrison Engg.,28.605202000000002,77.14680200000002,1724
1725,DC4515,Brar Square,28.607326315285807,77.1409517654622,1725
1726,U01208A,Kirbi Place,28.60535,77.126367,1726
1727,U01040,Nangal Raya Lajwanti Garden,28.611867999999998,77.109342,1727
1728,U01025,D Block Janak Puri (Pankha Road),28.607682,77.104129,1728
1730,DC4019,Dauralla Border,28.507925,76.896927,1730
1731,DC4020,Dauralla Village,28.510917,76.8954,1731
1732,DC4021,Rawta Village,28.523263,76.89950400000002,1732
1733,DC4022,Jhuljhuli Crossing,28.531783,76.9071,1733
1734,DC4024,Dariyapur Village / Malikpur Crossing,28.552616999999998,76.90765,1734
1735,DC4027,Jaffarpur RTRM Hospital,28.59532,76.915368,1735
1736,DC4029,Mitraon Village (Kair Village Road),28.608446,76.944717,1736
1737,DC3550,Bhagini Nivedita College,28.61788300000001,76.9312,1737
1738,DC3528,Kair Depot,28.618116999999998,76.93078299999998,1738
1739,U03732,Shahdara Border,28.6775,77.32300000000002,1739
1740,U03754,JandK Pocket Dilshad Garden,28.6797,77.3247,1740
1741,U03772,Seemapuri Old,28.680999999999997,77.3279,1741
1742,U03794,New Seema Puri Depot Cluster,28.684794,77.331346,1742
1743,U03793,Dilshad Garden Depot Cluster,28.685631,77.331179,1743
1744,U03789,Shalimar Garden More,28.688183000000002,77.33018299999998,1744
1745,U03770,DLF More,28.69287700000001,77.32719,1745
1746,DC3794,Tahir Pur,28.691367,77.324967,1746
1747,U03735,Anand Gram,28.68885,77.3219,1747
